id,amount_tsh,funder,gps_height,installer,longitude,latitude,wpt_name,num_private,basin,subvillage,region,region_code,district_code,lga,ward,population,public_meeting,scheme_management,scheme_name,permit,construction_year,extraction_type,extraction_type_group,extraction_type_class,management,management_group,payment,payment_type,water_quality,quality_group,quantity,quantity_group,source,source_type,source_class,waterpoint_type,waterpoint_type_group,status_group
71382,0,Twesa,0,TWESA,32.88083475,-3.59205208,Lyagiti Shuleni,0,Lake Victoria,Mwabaluhi,Shinyanga,17,3,Shinyanga Rural,Lyabukande,0,False,Parastatal,,True,0,other,other,other,parastatal,parastatal,never pay,never pay,soft,good,seasonal,seasonal,rainwater harvesting,rainwater harvesting,surface,other,other,functional needs repair
67471,20,Government Of Tanzania,971,DWE,36.82415899,-3.5004525,Kwa Tomasi Emanuel,0,Pangani,Marurani Kati,Arusha,2,2,Arusha Rural,Nduruma,150,True,VWC,Machumba estate pipe line,True,2009,gravity,gravity,gravity,vwc,user-group,pay per bucket,per bucket,soft,good,insufficient,insufficient,spring,spring,groundwater,communal standpipe,communal standpipe,functional needs repair
22778,200,Mwaya Mn,262,Communit,36.9065836,-7.83583032,Kwamakingi,0,Rufiji,Mlagayai,Morogoro,5,3,Kilombero,Mang'ula,200,True,WUA,Mangula,True,2009,gravity,gravity,gravity,vwc,user-group,pay monthly,monthly,soft,good,insufficient,insufficient,river,river/lake,surface,communal standpipe,communal standpipe,functional needs repair
26356,500,Unicef/central,1737,DWE,34.69748906,-9.11060447,Shuleni,0,Rufiji,Ngelele,Iringa,11,4,Njombe,Mdandu,350,True,WUA,wanging'ombe water supply s,True,1974,gravity,gravity,gravity,wua,user-group,pay monthly,monthly,soft,good,enough,enough,river,river/lake,surface,communal standpipe,communal standpipe,others
70935,0,Dwsp,0,DWE,0,-2E-08,Izinga,0,Lake Victoria,Mwakapalala,Shinyanga,17,1,Bariadi,Nkoma,0,True,WUG,,False,0,swn 80,swn 80,handpump,wug,user-group,pay when scheme fails,on failure,soft,good,insufficient,insufficient,shallow well,shallow well,groundwater,other,other,functional needs repair
17492,0,Hesawa,1233,DWE,32.99893617,-2.03031706,none,0,Lake Victoria,Tupendane,Mwanza,19,1,Ukerewe,Mukituntu,350,True,,,True,2002,other,other,other,vwc,user-group,never pay,never pay,soft,good,insufficient,insufficient,shallow well,shallow well,groundwater,other,other,functional needs repair
10033,250,Oxfarm,1511,OXFARM,29.80821725,-4.52136689,Kwa Yoram,0,Lake Tanganyika,Mhinda Kati,Kigoma,16,2,Kigoma Rural,Mkigo,370,True,Water authority,Mroroma,True,2001,gravity,gravity,gravity,water board,user-group,pay monthly,monthly,soft,good,enough,enough,river,river/lake,surface,communal standpipe multiple,communal standpipe,functional needs repair
26994,500,Abasia,1029,ABASIA,35.78916204,-10.42823353,Kwa Hoso,0,Lake Nyasa,Bombambili,Ruvuma,10,5,Namtumbo,Msindo,120,True,VWC,Maji mingi,True,1985,gravity,gravity,gravity,vwc,user-group,pay annually,annually,soft,good,enough,enough,river,river/lake,surface,communal standpipe,communal standpipe,others
4047,0,Dwsp,0,DWE,0,-2E-08,Mwaruleka,0,Lake Victoria,Misi A,Shinyanga,17,1,Bariadi,Somanda,0,True,WUG,,False,0,nira/tanira,nira/tanira,handpump,wug,user-group,never pay,never pay,soft,good,enough,enough,shallow well,shallow well,groundwater,hand pump,hand pump,functional needs repair
41059,0,Tanzania,489,RWE,37.64048225,-6.79336795,Kwa Chimpota,0,Wami / Ruvu,Mazimbu Darajani,Morogoro,5,5,Morogoro Urban,Mwembesongo,235,True,VWC,Mindu Wa,True,1985,gravity,gravity,gravity,vwc,user-group,never pay,never pay,soft,good,enough,enough,dam,dam,surface,communal standpipe,communal standpipe,others
55712,0,,0,,33.85119878,-8.83091098,Kwa Mzee Nikolus,0,Rufiji,Kanisani,Mbeya,12,7,Mbarali,Igurusi,0,True,WUA,,True,0,gravity,gravity,gravity,wua,user-group,pay monthly,monthly,soft,good,insufficient,insufficient,river,river/lake,surface,communal standpipe,communal standpipe,others
10591,0,Md,0,DW,31.49768291,-1.71453589,Zahanati,0,Lake Victoria,Omurunazi,Kagera,18,3,Muleba,Rushwa,0,True,VWC,,True,0,ksb,submersible,submersible,vwc,user-group,never pay,never pay,soft,good,enough,enough,spring,spring,groundwater,communal standpipe,communal standpipe,others
22229,250,Oxfarm,1513,OXFARM,29.79958952,-4.5201779,Kwa Damasi,0,Lake Tanganyika,Mbweru,Kigoma,16,2,Kigoma Rural,Mkigo,510,True,Water authority,Mroroma,True,2001,gravity,gravity,gravity,water board,user-group,pay monthly,monthly,soft,good,enough,enough,river,river/lake,surface,communal standpipe multiple,communal standpipe,functional needs repair
24878,0,Bsf,0,DWE,35.7731774,-5.062066,Musui,0,Internal,Musui,Dodoma,1,1,Kondoa,Kingale,0,True,VWC,King,False,0,cemo,other motorpump,motorpump,vwc,user-group,pay per bucket,per bucket,salty,salty,insufficient,insufficient,machine dbh,borehole,groundwater,communal standpipe,communal standpipe,others
63487,500,Holla,139,RWE,37.80443427,-7.37947565,Kwa Mzee Pogola,0,Wami / Ruvu,Chang'Ombe,Morogoro,5,2,Morogoro Rural,Bwakila Chini,350,True,VWC,,True,1986,swn 80,swn 80,handpump,vwc,user-group,pay monthly,monthly,soft,good,insufficient,insufficient,shallow well,shallow well,groundwater,hand pump,hand pump,others
27095,0,Fini Water,451,Fini Water,38.76642627,-10.26442546,Bombani Fini Water,0,Ruvuma / Southern Coast,Ccm A,Lindi,8,3,Nachingwea,Marambo,100,True,VWC,,False,1985,other,other,other,vwc,user-group,never pay,never pay,soft,good,enough,enough,machine dbh,borehole,groundwater,other,other,others
17800,0,Government Of Tanzania,0,Government,33.28755073,-8.70612259,Isambi Mwasimba,0,Lake Rukwa,Sawa,Mbeya,12,1,Chunya,Ifumbo,0,True,VWC,,True,0,gravity,gravity,gravity,vwc,user-group,pay monthly,monthly,soft,good,enough,enough,river,river/lake,surface,communal standpipe,communal standpipe,functional needs repair
14897,0,Ics,0,ICS,34.24777955,-3.20728358,Igobe Primary Tank,0,Internal,Shuleni,Shinyanga,17,6,Meatu,Mwandoya,0,True,Parastatal,None,True,0,gravity,gravity,gravity,parastatal,parastatal,never pay,never pay,soft,good,seasonal,seasonal,rainwater harvesting,rainwater harvesting,surface,communal standpipe,communal standpipe,functional needs repair
25369,0,,0,,33.6875556,-9.21066106,Kwa Amos Mwakabuba,0,Lake Nyasa,Masa Juu,Mbeya,12,4,Rungwe,Suma,0,True,VWC,D,,0,gravity,gravity,gravity,vwc,user-group,unknown,unknown,soft,good,enough,enough,spring,spring,groundwater,communal standpipe,communal standpipe,others
20358,0,Water Aid /sema,0,Water Aid /sema,32.31728418,-4.46138171,Zahanati,0,Lake Tanganyika,Sasu A,Tabora,14,4,Urambo,Kashishi,0,True,VWC,,True,0,afridev,afridev,handpump,vwc,user-group,never pay,never pay,salty,salty,enough,enough,shallow well,shallow well,groundwater,hand pump,hand pump,others
48633,1000,Tasaf,1001,TASAF,37.81697303,-4.15057604,Kwa Kisaka,0,Pangani,Nasuro B,Kilimanjaro,3,3,Same,Mwembe,250,True,Water authority,,True,2007,gravity,gravity,gravity,water board,user-group,pay monthly,monthly,soft,good,insufficient,insufficient,spring,spring,groundwater,communal standpipe multiple,communal standpipe,functional needs repair
34387,0,Ga,1375,Ga,36.86351431,-6.25705106,Kanisani,0,Wami / Ruvu,Jumbadimwekichangani,Morogoro,5,1,Kilosa,Rubeho,250,True,VWC,Ru,True,2008,gravity,gravity,gravity,vwc,user-group,never pay,never pay,soft,good,enough,enough,spring,spring,groundwater,communal standpipe,communal standpipe,functional needs repair
29930,500,Tcrs,1090,TCRS,34.13303874,-4.64426974,Masimba A,0,Internal,Masimba A,Singida,13,1,Iramba,Urughu,495,True,VWC,,True,1994,afridev,afridev,handpump,vwc,user-group,pay monthly,monthly,soft,good,enough,enough,machine dbh,borehole,groundwater,hand pump,hand pump,others
65054,0,Lamp,1388,DWE,35.6427984,-4.28714632,Mkwajuni,0,Internal,Gideshani,Manyara,21,1,Babati,Riroda,312,True,VWC,,True,1996,swn 80,swn 80,handpump,vwc,user-group,never pay,never pay,soft,good,enough,enough,shallow well,shallow well,groundwater,hand pump,hand pump,others
48498,0,Undp/ilo,1780,DWE,31.66515775,-8.50625653,Jacob Mwenga,0,Lake Tanganyika,Kalambalile,Rukwa,15,2,Sumbawanga Rural,Mwazye,50,True,VWC,Kalesha water supply,True,1990,gravity,gravity,gravity,vwc,user-group,never pay,never pay,soft,good,enough,enough,river,river/lake,surface,communal standpipe,communal standpipe,others
31073,0,Dwsp,0,DWE,0,-2E-08,Wataalamu,0,Lake Victoria,Mitindu,Shinyanga,17,1,Bariadi,Kasoli,0,False,WUG,,False,0,other,other,other,wug,user-group,never pay,never pay,soft,good,enough,enough,other,other,unknown,other,other,others
20732,200,Dhv,559,DWE,36.63514715,-8.6269365,Kwarimota,0,Rufiji,Chipweka,Morogoro,5,4,Ulanga,Msogezi,1,True,,,True,1998,nira/tanira,nira/tanira,handpump,vwc,user-group,pay monthly,monthly,soft,good,enough,enough,shallow well,shallow well,groundwater,hand pump,hand pump,functional needs repair
45646,0,Government Of Tanzania,1419,DWE,37.51092705,-3.28704914,Kwa Joseph Limo,0,Pangani,Lyamrakana,Kilimanjaro,3,4,Moshi Rural,Marangu Mashariki,1,False,VWC,Marangu baraza,True,1972,gravity,gravity,gravity,vwc,user-group,never pay,never pay,soft,good,enough,enough,spring,spring,groundwater,other,other,others
61381,0,World Bank,0,world,36.62956516,-6.45233214,Mbori Primary School,0,Wami / Ruvu,Kaloleni B,Dodoma,1,0,Mpwapwa,Matomondo,0,True,VWC,,True,0,gravity,gravity,gravity,other,other,never pay,never pay,soft,good,seasonal,seasonal,rainwater harvesting,rainwater harvesting,surface,communal standpipe,communal standpipe,functional needs repair
17068,0,Wvt,0,WVT,0,-2E-08,Kisesa,0,Lake Victoria,Mwakirunguje,Shinyanga,17,1,Bariadi,Lagangabilili,0,True,WUG,,False,0,swn 80,swn 80,handpump,wug,user-group,pay when scheme fails,on failure,salty,salty,enough,enough,shallow well,shallow well,groundwater,hand pump,hand pump,functional needs repair
73348,0,Government Of Tanzania,1074,RWE,37.5768594,-7.0545763,Kwa William,0,Wami / Ruvu,Lolo,Morogoro,5,6,Mvomero,Langali,1,True,VWC,Mzinga r,True,1974,gravity,gravity,gravity,vwc,user-group,never pay,never pay,soft,good,enough,enough,river,river/lake,surface,communal standpipe,communal standpipe,others
1055,0,Private,1301,Private,35.02922714,-11.12528717,Shuleni,0,Ruvuma / Southern Coast,Utiri,Ruvuma,10,3,Mbinga,Mbangamao,298,,WUG,Government,True,2008,gravity,gravity,gravity,parastatal,parastatal,unknown,unknown,soft,good,insufficient,insufficient,spring,spring,groundwater,communal standpipe,communal standpipe,functional needs repair
66922,0,Ministry Of Water,1092,Idara ya maji,34.96040467,-5.85074822,Senta,0,Internal,Mabondeni,Singida,13,3,Manyoni,Kilimatinde,1,True,VWC,Kilimatinde water supply,False,1974,mono,mono,motorpump,vwc,user-group,never pay,never pay,soft,good,enough,enough,machine dbh,borehole,groundwater,communal standpipe multiple,communal standpipe,others
23924,0,Government Of Tanzania,0,DISTRICT COUNCIL,33.37157118,-9.23337286,Mwambondo,0,Lake Nyasa,Shilanga Ofisini,Mbeya,12,2,Mbeya Rural,Ilembo,0,False,VWC,,False,0,gravity,gravity,gravity,wug,user-group,pay when scheme fails,on failure,soft,good,enough,enough,spring,spring,groundwater,other,other,others
70272,0,Oxfam,0,OXFAM,30.82876173,-2.40657898,Kaburanzwili Kanisani,0,Lake Victoria,Kianama,Kagera,18,30,Ngara,Rusumo,0,True,VWC,Kamatendeli no 2  spring source,False,0,gravity,gravity,gravity,vwc,user-group,pay monthly,monthly,soft,good,enough,enough,spring,spring,groundwater,communal standpipe,communal standpipe,functional needs repair
69698,0,Dwsp,0,DWE,0,-2E-08,Shule Ya Msingi Kashishi,0,Lake Victoria,Madukani,Shinyanga,17,1,Bariadi,Zagayu,0,True,Parastatal,,False,0,nira/tanira,nira/tanira,handpump,parastatal,parastatal,other,other,salty abandoned,salty,enough,enough,shallow well,shallow well,groundwater,hand pump,hand pump,functional needs repair
62393,0.25,Ces(gmbh),685,DWE,37.35750907,-3.58622983,Kwa Samweli Kigogo,0,Pangani,Kirungu,Kilimanjaro,3,4,Moshi Rural,Arusha Chini,1,,Water Board,Kirua kahe pumping water trust,True,2008,submersible,submersible,submersible,water board,user-group,pay per bucket,per bucket,soft,good,enough,enough,machine dbh,borehole,groundwater,communal standpipe,communal standpipe,others
15762,0,World Bank,0,Gover,36.56109186,-6.68985849,Hospitali,0,Wami / Ruvu,Shuleni,Dodoma,1,1,Mpwapwa,Lumuma,0,True,VWC,Pwag,True,0,gravity,gravity,gravity,vwc,user-group,pay per bucket,per bucket,soft,good,enough,enough,spring,spring,groundwater,communal standpipe,communal standpipe,functional needs repair
51669,0,Mkinga Distric Coun,0,DWE,39.15450608,-4.77000575,Zingibali Secondary,0,Pangani,Zingibali Secondary,Tanga,4,8,Mkinga,Moa,20,True,VWC,Zingibali,True,2009,submersible,submersible,submersible,vwc,user-group,never pay,never pay,salty,salty,insufficient,insufficient,other,other,unknown,communal standpipe,communal standpipe,others
54329,300,Roman Cathoric-same,852,District Council,37.68762419,-3.81275802,Kwa Mzee Jenesi,0,Pangani,Kivelenge,Kilimanjaro,3,2,Mwanga,Kwakoa,40,True,VWC,Ngulu water Supply,False,1992,gravity,gravity,gravity,vwc,user-group,pay monthly,monthly,soft,good,enough,enough,spring,spring,groundwater,communal standpipe,communal standpipe,functional needs repair
8124,200,Msf/tacare,1109,MSF/TACARE,29.68612697,-4.69642785,Tulashashe,0,Lake Tanganyika,Mbalizi,Kigoma,16,3,Kigoma Rural,Mwamgongo,100,True,WUG,Chankele/Bubango water project,True,2006,gravity,gravity,gravity,vwc,user-group,pay monthly,monthly,soft,good,enough,enough,river,river/lake,surface,communal standpipe multiple,communal standpipe,functional needs repair
62740,0,Government Of Tanzania,0,Centr,35.80365356,-4.60331047,Kwa Said,0,Internal,Masange,Dodoma,1,1,Kondoa,Masange,0,True,VWC,Masa,False,0,gravity,gravity,gravity,vwc,user-group,never pay,never pay,soft,good,enough,enough,spring,spring,groundwater,communal standpipe,communal standpipe,functional needs repair
64083,0,Government Of Tanzania,959,Government,35.14933659,-10.68606518,Kwa Mzee Ngongolo,0,Ruvuma / Southern Coast,Mbugani,Ruvuma,10,3,Mbinga,Kigonsera,60,,VWC,Government,True,1977,gravity,gravity,gravity,unknown,unknown,unknown,unknown,soft,good,seasonal,seasonal,spring,spring,groundwater,communal standpipe,communal standpipe,functional needs repair
47642,0,Dwsp,0,DWE,0,-2E-08,Kitula,0,Lake Victoria,Galahina,Shinyanga,17,1,Bariadi,Somanda,0,True,WUG,,False,0,nira/tanira,nira/tanira,handpump,wug,user-group,never pay,never pay,salty abandoned,salty,enough,enough,shallow well,shallow well,groundwater,hand pump,hand pump,functional needs repair
72583,50,Kibaha Town Council,86,DAWASCO,38.95464721,-6.75433891,Zacharia,0,Wami / Ruvu,Lulanzi,Pwani,6,2,Kibaha,Tumbi,1,True,Water authority,River,True,2010,mono,mono,motorpump,vwc,user-group,pay per bucket,per bucket,soft,good,enough,enough,river,river/lake,surface,communal standpipe multiple,communal standpipe,others
25665,0,Rwssp,0,RWSP,32.895487,-3.30138235,Kwa Somi,0,Lake Victoria,Itirima,Shinyanga,17,3,Shinyanga Rural,Salawe,0,True,WUG,,True,0,nira/tanira,nira/tanira,handpump,wug,user-group,never pay,never pay,soft,good,dry,dry,shallow well,shallow well,groundwater,hand pump,hand pump,others
63089,300,Msf,1072,MSF,29.66157439,-4.72220949,Jikwamue,0,Lake Tanganyika,Mwigagi,Kigoma,16,3,Kigoma Rural,Mwamgongo,195,True,WUG,Mwongolele water project,True,2003,gravity,gravity,gravity,wug,user-group,pay monthly,monthly,soft,good,insufficient,insufficient,spring,spring,groundwater,communal standpipe multiple,communal standpipe,functional needs repair
24433,0,Sabemo,1795,Chamavita,38.32842332,-4.7385926,Kwa Mzee Kigalinga,6,Pangani,Kwaboli,Tanga,4,1,Lushoto,Kwai,1,True,VWC,Mangamba forest,True,2000,gravity,gravity,gravity,vwc,user-group,never pay,never pay,soft,good,enough,enough,spring,spring,groundwater,communal standpipe,communal standpipe,functional needs repair
70717,0,Government Of Tanzania,1298,DWE,37.54037888,-3.29621617,Kwa Frank Godfrey,0,Pangani,Mseroe,Kilimanjaro,3,4,Moshi Rural,Mamba Kusini,50,True,VWC,Una mkolowoni,True,2000,gravity,gravity,gravity,vwc,user-group,never pay,never pay,soft,good,insufficient,insufficient,spring,spring,groundwater,communal standpipe,communal standpipe,functional needs repair
43827,0,Water,0,DWE,35.7398375,-4.56432442,Alagwa,0,Internal,Alagwa,Dodoma,1,1,Kondoa,Bereko,0,True,VWC,Masa,False,0,cemo,other motorpump,motorpump,vwc,user-group,pay per bucket,per bucket,soft,good,enough,enough,machine dbh,borehole,groundwater,communal standpipe,communal standpipe,functional needs repair
70280,0,,0,,34.0817286,-8.78953627,Kwa Senjebolo,0,Rufiji,Majengo,Mbeya,12,7,Mbarali,Chimala,0,True,VWC,,True,0,gravity,gravity,gravity,vwc,user-group,pay monthly,monthly,soft,good,insufficient,insufficient,river,river/lake,surface,communal standpipe,communal standpipe,functional needs repair
52805,0,Hesawa,0,DWE,31.74600678,-1.4912554,Kwa Kanywere,0,Lake Victoria,Nyakibanga,Kagera,18,2,Bukoba Rural,Katerero,0,True,VWC,WAUSA,True,0,gravity,gravity,gravity,vwc,user-group,never pay,never pay,soft,good,insufficient,insufficient,spring,spring,groundwater,communal standpipe,communal standpipe,functional needs repair
9165,5,Ces (gmbh),1053,DWE,37.25361232,-3.28448397,Kwa Regina Joachim,0,Pangani,Sereni,Kilimanjaro,3,4,Moshi Rural,Kibosho Magharibi,125,True,Water Board,Lyamungo umbwe water supply,True,2007,gravity,gravity,gravity,water board,user-group,pay per bucket,per bucket,soft,good,enough,enough,river,river/lake,surface,communal standpipe,communal standpipe,others
44207,5,Germany Republi,1276,CES,37.23756453,-3.24020086,Kwa Origenes Mnura,0,Pangani,Ushara,Kilimanjaro,3,5,Hai,Machame Mashariki,80,True,Water Board,Lyamungo-Umbwe water supply,True,2006,gravity,gravity,gravity,water board,user-group,pay per bucket,per bucket,soft,good,enough,enough,spring,spring,groundwater,communal standpipe,communal standpipe,others
2075,0,Peter Tesha,1230,DWE,37.36007237,-3.26686764,Kwa Lini Sebastian,0,Pangani,Sia,Kilimanjaro,3,4,Moshi Rural,Uru Shimbwe,55,True,VWC,Uru shimbwe,True,2000,gravity,gravity,gravity,vwc,user-group,never pay,never pay,soft,good,enough,enough,spring,spring,groundwater,communal standpipe,communal standpipe,others
18846,0,Roman,2049,DWE,34.71472662,-9.72994601,none,0,Lake Nyasa,Lubindi,Iringa,11,5,Ludewa,Madilu,79,True,VWC,Roman,False,2000,gravity,gravity,gravity,vwc,user-group,pay when scheme fails,on failure,soft,good,enough,enough,spring,spring,groundwater,communal standpipe,communal standpipe,others
40634,0,Kkkt,0,KKKT,32.76113845,-8.984521,Rangimbili Sikanyika,0,Lake Rukwa,Malolo Chini,Mbeya,12,6,Mbozi,Msia,0,True,VWC,,False,0,nira/tanira,nira/tanira,handpump,vwc,user-group,pay when scheme fails,on failure,soft,good,insufficient,insufficient,shallow well,shallow well,groundwater,hand pump,hand pump,others
17535,0,World Vision,0,World vision,34.06172513,-3.41007097,Mwanindo Primary School,0,Internal,Mwanindo,Shinyanga,17,2,Maswa,Dakama,0,True,WUG,,False,0,gravity,gravity,gravity,wug,user-group,other,other,soft,good,seasonal,seasonal,rainwater harvesting,rainwater harvesting,surface,communal standpipe,communal standpipe,functional needs repair
17747,0,Government Of Tanzania,1750,Government,37.56331501,-3.24981319,Kwa Kara,0,Pangani,Komola,Kilimanjaro,3,4,Rombo,Keni Mengeni,1,True,WUA,Marera-Lole pipeline,True,1970,gravity,gravity,gravity,wua,user-group,pay monthly,monthly,soft,good,enough,enough,spring,spring,groundwater,communal standpipe multiple,communal standpipe,functional needs repair
742,200,Dhv,293,DWE,36.89237101,-7.85313356,Majiniuhai,0,Rufiji,Posta,Morogoro,5,3,Kilombero,Mang'ula,280,True,WUA,Mwaya Mn,True,1998,gravity,gravity,gravity,vwc,user-group,pay monthly,monthly,soft,good,insufficient,insufficient,river,river/lake,surface,communal standpipe,communal standpipe,functional needs repair
38899,0,Community,1584,Community,35.51046071,-4.23225169,Farm Africa,0,Internal,Bermi A,Manyara,21,1,Babati,Dareda,245,True,VWC,,True,2008,gravity,gravity,gravity,vwc,user-group,never pay,never pay,soft,good,enough,enough,spring,spring,groundwater,communal standpipe,communal standpipe,others
46332,2000,Oxfam,1436,DWE,36.69054976,-3.35434536,Lobora,0,Pangani,Lobora,Arusha,2,2,Arusha Rural,Moivo,200,True,VWC,Nabaiye pipe line,True,1999,gravity,gravity,gravity,vwc,user-group,pay monthly,monthly,soft,good,enough,enough,spring,spring,groundwater,communal standpipe multiple,communal standpipe,functional needs repair
33999,0,Government Of Tanzania,1595,DWE,37.44023528,-3.29415489,Kwa Tondi,0,Pangani,Maliaseli,Kilimanjaro,3,4,Moshi Rural,Kimochi,40,True,VWC,Komaka mandaka,True,1974,gravity,gravity,gravity,vwc,user-group,unknown,unknown,soft,good,enough,enough,spring,spring,groundwater,communal standpipe,communal standpipe,functional needs repair
533,0,Rural Water Supply And Sanitat,0,DWE,31.56099649,-3.41376647,Bakamba Water Group,0,Lake Tanganyika,Bulumbaga B,Shinyanga,17,5,Bukombe,Runzewe,0,,WUG,,True,0,nira/tanira,nira/tanira,handpump,wug,user-group,unknown,unknown,salty,salty,enough,enough,shallow well,shallow well,groundwater,hand pump,hand pump,functional needs repair
7147,0,,0,,34.37495206,-8.70521505,Kwa Mzee Danda,0,Rufiji,Tankini A,Mbeya,12,7,Mbarali,Rujewa,0,False,Water Board,,True,0,gravity,gravity,gravity,water board,user-group,never pay,never pay,coloured,colored,seasonal,seasonal,river,river/lake,surface,communal standpipe,communal standpipe,functional needs repair
72577,0,Government Of Tanzania,1567,DWE,36.65956476,-3.31281185,Wataalam,0,Pangani,Wataalam,Arusha,2,2,Arusha Rural,Kimnyaki,300,True,VWC,TPRI pipe line,True,1990,gravity,gravity,gravity,vwc,user-group,never pay,never pay,soft,good,insufficient,insufficient,spring,spring,groundwater,communal standpipe,communal standpipe,functional needs repair
54267,0,Wvt,0,WVT,0,-2E-08,Mstuni,0,Lake Victoria,Mwamalili,Shinyanga,17,1,Bariadi,Chinamili,0,True,WUG,,False,0,nira/tanira,nira/tanira,handpump,wug,user-group,other,other,soft,good,enough,enough,shallow well,shallow well,groundwater,hand pump,hand pump,functional needs repair
3804,0,Government Of Tanzania,0,Government,33.1585761,-8.41297844,Mzee Katoto,0,Lake Rukwa,Machinjioni,Mbeya,12,1,Chunya,Makongorosi,0,True,VWC,,True,0,mono,mono,motorpump,vwc,user-group,pay per bucket,per bucket,soft,good,enough,enough,machine dbh,borehole,groundwater,communal standpipe,communal standpipe,functional needs repair
49260,0,Tasaf,1681,DWE,36.73948643,-3.32654462,Kwa Malingwa,0,Pangani,Engikaleti,Arusha,2,2,Arusha Rural,Bangata,200,True,VWC,Bangata water project,True,2007,gravity,gravity,gravity,vwc,user-group,never pay,never pay,soft,good,enough,enough,spring,spring,groundwater,communal standpipe,communal standpipe,others
10230,0,Water,0,MWE &,35.67651949,-6.20749316,Shule Ya Msingi Michese,0,Internal,Ukombozi,Dodoma,1,5,Dodoma Urban,Mkonze,0,True,VWC,Mich,False,0,mono,mono,motorpump,vwc,user-group,never pay,never pay,soft,good,insufficient,insufficient,machine dbh,borehole,groundwater,communal standpipe multiple,communal standpipe,functional needs repair
21652,500,Unicef/central,1725,DWE,34.70229514,-9.10808285,Kwa Sijalimtu Mwang'Ande,0,Rufiji,Ngelele,Iringa,11,4,Njombe,Mdandu,45,True,WUA,wanging'ombe water supply s,True,1974,gravity,gravity,gravity,wua,user-group,pay monthly,monthly,soft,good,enough,enough,river,river/lake,surface,communal standpipe,communal standpipe,functional needs repair
62849,3000,Rocci Ross,1449,AUSTRALIA,34.57023034,-4.56993252,Majimalulu,0,Internal,Majimalulu,Singida,13,1,Iramba,Iguguno,275,True,VWC,,True,2004,afridev,afridev,handpump,vwc,user-group,pay annually,annually,soft,good,enough,enough,machine dbh,borehole,groundwater,hand pump,hand pump,others
17263,500,District Council,2153,DWE,34.65598562,-9.66466719,none,0,Lake Nyasa,Njia Panda,Iringa,11,5,Ludewa,Madope,48,True,VWC,Distri,False,2003,gravity,gravity,gravity,vwc,user-group,pay monthly,monthly,soft,good,enough,enough,spring,spring,groundwater,communal standpipe,communal standpipe,functional needs repair
60812,0,Danida,447,DANIDA,34.80423734,-11.28545242,Msikitini,0,Lake Nyasa,Mtimbe,Ruvuma,10,3,Mbinga,Mbamba bay,40,True,VWC,DANIDA,True,2008,gravity,gravity,gravity,vwc,user-group,never pay,never pay,soft,good,dry,dry,spring,spring,groundwater,communal standpipe,communal standpipe,others
30651,0,Water,0,Gover,36.49118487,-7.10931532,Airport,0,Rufiji,Airport,Dodoma,1,1,Mpwapwa,Ipera,0,True,VWC,Kinu,True,0,gravity,gravity,gravity,vwc,user-group,never pay,never pay,soft,good,insufficient,insufficient,spring,spring,groundwater,communal standpipe multiple,communal standpipe,functional needs repair
10471,0,,0,,34.31647204,-8.67266556,Kwa Poland,0,Rufiji,Ujamaa,Mbeya,12,7,Mbarali,Ubaruku,0,True,VWC,,True,0,submersible,submersible,submersible,vwc,user-group,never pay,never pay,soft,good,enough,enough,machine dbh,borehole,groundwater,communal standpipe,communal standpipe,others
65323,0,Dwsp,0,DWE,0,-2E-08,Ujamaa,0,Lake Victoria,Nyamakomelo,Shinyanga,17,1,Bariadi,Nyakabindi,0,False,WUG,,False,0,swn 80,swn 80,handpump,wug,user-group,never pay,never pay,salty,salty,enough,enough,shallow well,shallow well,groundwater,hand pump,hand pump,functional needs repair
37262,0,World Vision,0,World vision,33.78809557,-3.3307763,Masanwa Dispensary,0,Internal,Masanwa,Shinyanga,17,2,Maswa,Busilili,0,True,WUG,,False,0,gravity,gravity,gravity,wug,user-group,other,other,soft,good,seasonal,seasonal,rainwater harvesting,rainwater harvesting,surface,communal standpipe,communal standpipe,functional needs repair
5442,500,Norad,1014,RWE,29.73521068,-4.72675756,Kwa Yohana,0,Lake Tanganyika,Nyamhoza Hill,Kigoma,16,3,Kigoma Rural,Bitale,123,True,VWC,Mkongoro One,True,1982,gravity,gravity,gravity,vwc,user-group,pay monthly,monthly,soft,good,enough,enough,river,river/lake,surface,communal standpipe,communal standpipe,functional needs repair
47607,0,Aar,0,AAR,30.4899488,-2.88888006,Mchamazi,0,Lake Victoria,Murulama Ya Kati,Kagera,18,30,Ngara,Bukiriro,0,True,VWC,,False,0,gravity,gravity,gravity,vwc,user-group,never pay,never pay,soft,good,enough,enough,spring,spring,groundwater,other,other,functional needs repair
61723,0,0,-15,0,39.36664355,-6.90165096,Kwa Mchapawali,0,Wami / Ruvu,Kigogo,Dar es Salaam,7,3,Temeke,Kisarawe II,140,True,SWC,,False,2000,afridev,afridev,handpump,other - school,other,never pay,never pay,soft,good,insufficient,insufficient,machine dbh,borehole,groundwater,hand pump,hand pump,functional needs repair
59749,0,Hesawa,0,DWE,33.36069447,-2.64032917,Shuleni Sekondari Kinango,0,Lake Victoria,Kinango B,Mwanza,19,2,Magu,Nyigogo,0,True,VWC,,True,0,gravity,gravity,gravity,vwc,user-group,never pay,never pay,soft,good,enough,enough,rainwater harvesting,rainwater harvesting,surface,other,other,functional needs repair
26288,590,Dfid,1698,WATER AID,34.84023263,-4.8539717,Bahati,0,Internal,Janukha,Singida,13,4,Singida Urban,Unyambwa,44,True,WUG,,True,2004,nira/tanira,nira/tanira,handpump,wug,user-group,pay monthly,monthly,soft,good,enough,enough,shallow well,shallow well,groundwater,hand pump,hand pump,others
22086,500,Tcrs,1270,TCRS,30.48545162,-5.61330847,Headquarters,0,Lake Tanganyika,Headquarters,Rukwa,15,1,Mpanda,Mishamo,68,True,VWC,Kashutakasimba,True,1980,gravity,gravity,gravity,vwc,user-group,pay monthly,monthly,soft,good,enough,enough,spring,spring,groundwater,communal standpipe,communal standpipe,functional needs repair
73934,0,Dassip,0,DWE,0,-2E-08,Amani,0,Lake Victoria,Lingeka,Shinyanga,17,1,Bariadi,Mwamapalala,0,True,WUG,,False,0,nira/tanira,nira/tanira,handpump,wug,user-group,other,other,soft,good,enough,enough,shallow well,shallow well,groundwater,hand pump,hand pump,functional needs repair
58909,0,World Vision,0,World vision,32.07136201,-3.35326674,Tegemeo,0,Lake Tanganyika,Mubamba,Shinyanga,17,5,Bukombe,Ilolangulu,0,True,WUG,,True,0,nira/tanira,nira/tanira,handpump,wug,user-group,unknown,unknown,soft,good,enough,enough,shallow well,shallow well,groundwater,hand pump,hand pump,functional needs repair
11882,0,Total Landcare,0,Total landcare,32.88386562,-5.11293363,Kwa Ramadhani Madaya,0,Lake Tanganyika,Mishegiwela,Tabora,14,6,Tabora Urban,Ndevelwa,0,False,VWC,,True,0,india mark ii,india mark ii,handpump,vwc,user-group,never pay,never pay,milky,milky,enough,enough,shallow well,shallow well,groundwater,hand pump,hand pump,others
31883,0,Lga,426,LGA,38.6549288,-10.66563006,Darani,0,Ruvuma / Southern Coast,Majimaji,Mtwara,90,33,Masasi,Namajani,1,,VWC,,True,2009,other,other,other,vwc,user-group,unknown,unknown,salty,salty,dry,dry,machine dbh,borehole,groundwater,other,other,others
71907,500,Unicef,1656,DWE,34.6397319,-9.05626572,Kwa Mode Kafyulila,0,Rufiji,Kati,Iringa,11,4,Njombe,Usuka,85,True,WUA,wanging'ombe water supply s,True,1978,gravity,gravity,gravity,wua,user-group,pay monthly,monthly,soft,good,insufficient,insufficient,river,river/lake,surface,communal standpipe,communal standpipe,functional needs repair
62241,1000,Danida,960,DANIDA,35.94556812,-10.62961043,Kwa Basilisi Fusi,0,Rufiji,Madukani A,Ruvuma,10,5,Namtumbo,Msindo,300,True,VWC,Ngwinde water gravity scheme,True,1991,gravity,gravity,gravity,vwc,user-group,pay annually,annually,soft,good,seasonal,seasonal,river,river/lake,surface,communal standpipe,communal standpipe,functional needs repair
5039,1000,Rc Church,2175,RC CHURCH,34.40677899,-9.21316455,Kwa Oleni Mbwilo,0,Rufiji,Ilulu B,Iringa,11,4,Njombe,Wangama,40,True,VWC,imalilo water supply scheme,True,2000,gravity,gravity,gravity,vwc,user-group,pay annually,annually,soft,good,enough,enough,spring,spring,groundwater,communal standpipe,communal standpipe,others
36989,50,Jica,383,JICA,38.56913695,-10.37154162,Kisimani Jica,0,Ruvuma / Southern Coast,Mapinduzi,Lindi,8,3,Nachingwea,Mtua,405,True,VWC,Kipara,True,2007,submersible,submersible,submersible,vwc,user-group,pay per bucket,per bucket,salty,salty,insufficient,insufficient,machine dbh,borehole,groundwater,communal standpipe multiple,communal standpipe,functional needs repair
13509,0,Lawatefuka Water Supply,1298,Lawatefuka water sup,37.10486243,-3.19175526,Kwa Ester Nicholaus,0,Pangani,Mae Kati,Kilimanjaro,3,7,Siha,Siha Mashariki,1,True,Water Board,TM lawate water suppy,True,2002,gravity,gravity,gravity,water board,user-group,pay monthly,monthly,soft,good,enough,enough,spring,spring,groundwater,communal standpipe,communal standpipe,others
28369,0,Bsf,0,DWE,35.2019786,-5.1290253,Tangini,0,Internal,Boro,Dodoma,1,1,Kondoa,Ovada,0,True,VWC,Meng,False,0,cemo,other motorpump,motorpump,vwc,user-group,pay per bucket,per bucket,soft,good,enough,enough,machine dbh,borehole,groundwater,communal standpipe,communal standpipe,functional needs repair
2186,0,Dasip,0,DASIP,0,-2E-08,Muungano,0,Lake Victoria,Mkuyuni,Shinyanga,17,1,Bariadi,Mwadobana,0,True,WUG,,False,0,nira/tanira,nira/tanira,handpump,wug,user-group,never pay,never pay,soft,good,enough,enough,shallow well,shallow well,groundwater,hand pump,hand pump,functional needs repair
24846,0,Dwsp,0,DWE,0,-2E-08,Asante Mabomba,0,Lake Victoria,Mwanghalanga,Shinyanga,17,1,Bariadi,Sapiwi,0,True,WUG,,False,0,nira/tanira,nira/tanira,handpump,wug,user-group,never pay,never pay,soft,good,insufficient,insufficient,shallow well,shallow well,groundwater,hand pump,hand pump,functional needs repair
50810,100,Cobashec,377,DWE,35.74108622,-8.85591745,Kwampangile,0,Rufiji,Lumumwe,Morogoro,5,3,Kilombero,Mlimba,250,True,,,True,2002,nira/tanira,nira/tanira,handpump,vwc,user-group,pay monthly,monthly,soft,good,insufficient,insufficient,shallow well,shallow well,groundwater,hand pump,hand pump,others
47606,0,Private Individual,0,ISSAA KANYANGE,33.56239183,-3.55133395,Kwa Lssa,0,Internal,Maganzo,Shinyanga,17,8,Kishapu,Songwa,0,False,Private operator,,False,0,other,other,other,private operator,commercial,pay per bucket,per bucket,salty,salty,enough,enough,shallow well,shallow well,groundwater,other,other,functional needs repair
36286,0,Dwssp,0,DWE,33.5594036,-3.54418686,Sebandekelo,0,Internal,Majimaji,Shinyanga,17,8,Kishapu,Songwa,0,True,WUG,,False,0,other,other,other,wug,user-group,unknown,unknown,salty,salty,unknown,unknown,shallow well,shallow well,groundwater,other,other,functional needs repair
45450,0,Kkkt,0,KKKT,32.49546364,-9.08656841,Siwingwa Christopher,0,Lake Rukwa,Ndalambo Kati,Mbeya,12,6,Mbozi,Ndalambo,0,True,VWC,,True,0,nira/tanira,nira/tanira,handpump,vwc,user-group,never pay,never pay,soft,good,enough,enough,shallow well,shallow well,groundwater,hand pump,hand pump,others
71654,0,Redcross,0,KYASHA ENTERPR,31.83709851,-1.08502962,Shule Ya Msingi Katale,0,Lake Victoria,Katale,Kagera,18,2,Bukoba Rural,Rubafu,0,True,VWC,,True,0,gravity,gravity,gravity,vwc,user-group,never pay,never pay,soft,good,insufficient,insufficient,rainwater harvesting,rainwater harvesting,surface,communal standpipe,communal standpipe,functional needs repair
7024,0,Hesawa,0,DWE,31.31979209,-2.63508391,Kwa Mzee Senso,0,Lake Tanganyika,Ng'Ambo B,Kagera,18,4,Biharamulo,Biharamulo Urban,0,True,VWC,,True,0,nira/tanira,nira/tanira,handpump,vwc,user-group,pay monthly,monthly,soft,good,enough,enough,shallow well,shallow well,groundwater,hand pump,hand pump,others
63791,0,Lgcbg,302,DWE,35.83477786,-8.97627368,Kwamhiche,0,Rufiji,Iduindembo,Morogoro,5,3,Kilombero,Utengule,450,True,,,True,2008,nira/tanira,nira/tanira,handpump,vwc,user-group,never pay,never pay,soft,good,enough,enough,shallow well,shallow well,groundwater,hand pump,hand pump,others
22207,0,World Vision,0,World vision,34.0211968,-3.58322918,Msituni,0,Internal,Mwambuluki,Shinyanga,17,2,Maswa,Dakama,0,True,WUG,,False,0,nira/tanira,nira/tanira,handpump,wug,user-group,other,other,fluoride abandoned,fluoride,enough,enough,shallow well,shallow well,groundwater,hand pump,hand pump,others
35890,0,Oxfarm,0,DWE,31.17188006,-1.583163,Kwa Lucas,0,Lake Victoria,Chanyangoma,Kagera,18,1,Karagwe,Bugene,0,True,VWC,Rwamgurusi water,True,0,gravity,gravity,gravity,vwc,user-group,never pay,never pay,soft,good,seasonal,seasonal,spring,spring,groundwater,communal standpipe,communal standpipe,functional needs repair
69666,4700,Cefa-njombe,1242,Cefa,35.23918067,-9.08167288,Kwa Gabriel Masinga,0,Rufiji,Idyadya,Iringa,11,4,Njombe,Ikondo,76,True,VWC,Ikondo electrical water sch,True,1986,gravity,gravity,gravity,vwc,user-group,pay annually,annually,soft,good,enough,enough,river,river/lake,surface,communal standpipe,communal standpipe,others
16936,0,Rwssp,0,DWE,32.50632632,-3.73770637,Kwa Makoye,0,Lake Tanganyika,Nyambula,Shinyanga,17,3,Kahama,Ngongwa,0,True,,,True,0,other,other,other,vwc,user-group,unknown,unknown,milky,milky,dry,dry,shallow well,shallow well,groundwater,other,other,others
22818,50,Jaica,54,JAICA,39.45899437,-10.23246189,Tenkini,0,Ruvuma / Southern Coast,Nyerere,Lindi,80,23,Lindi Rural,Nyengedi,123,True,VWC,JAICA Borehole Scheme,False,2006,submersible,submersible,submersible,vwc,user-group,pay per bucket,per bucket,soft,good,enough,enough,river,river/lake,surface,communal standpipe multiple,communal standpipe,others
16252,0,Ministry Of Water,1180,DWE,35.86922384,-4.1389534,Kwa Maliseli,0,Internal,Senta,Manyara,21,1,Babati,Mamire,84,True,VWC,Mamire water supply,True,1998,gravity,gravity,gravity,vwc,user-group,never pay,never pay,soft,good,enough,enough,spring,spring,groundwater,communal standpipe,communal standpipe,others
54458,0,Wateraid,0,SEMA,33.0156801,-4.66036109,Kigando Centre 1,0,Lake Tanganyika,Kigando Centre,Tabora,14,1,Nzega,Mwakanshashala,0,True,VWC,,True,0,india mark ii,india mark ii,handpump,vwc,user-group,never pay,never pay,salty abandoned,salty,enough,enough,machine dbh,borehole,groundwater,hand pump,hand pump,others
73046,0,Kkkt Church,1382,KKKT CHURCH,37.88462628,-4.20821435,Zahanati,0,Pangani,Indini,Kilimanjaro,3,3,Same,Vudee,210,True,Water authority,Kiamachini water supply,True,1982,gravity,gravity,gravity,vwc,user-group,never pay,never pay,soft,good,enough,enough,spring,spring,groundwater,communal standpipe,communal standpipe,others
68351,500,Aco/germany,1306,DWE,37.31770004,-3.24131135,Kwa Clemence Kwayu,0,Pangani,Singa Kifueni,Kilimanjaro,3,4,Moshi Rural,Kibosho Mashariki,60,True,VWC,Msowo water supply,True,2008,gravity,gravity,gravity,vwc,user-group,pay monthly,monthly,soft,good,enough,enough,spring,spring,groundwater,communal standpipe,communal standpipe,others
62234,0,Norad,911,DWE,29.64216166,-4.79774317,Kwa Thabit Rashid,0,Lake Tanganyika,Buhinda,Kigoma,16,3,Kigoma Rural,Kagongo,380,True,VWC,Kagongo water project,True,1992,gravity,gravity,gravity,vwc,user-group,unknown,unknown,soft,good,insufficient,insufficient,spring,spring,groundwater,communal standpipe,communal standpipe,functional needs repair
55630,500,Unicef,1702,DWE,34.63227122,-9.10324969,Kwa Essau Mfikwa,0,Rufiji,Ngelele,Iringa,11,4,Njombe,Mdandu,55,True,WUA,wanging'ombe water supply s,True,1978,gravity,gravity,gravity,wua,user-group,pay monthly,monthly,soft,good,seasonal,seasonal,river,river/lake,surface,communal standpipe,communal standpipe,others
20726,0,Wvt,1337,WVT,34.06409034,-2.99754712,Shule Ya Msingi Dasina B,0,Lake Victoria,Lutaru,Shinyanga,17,1,Bariadi,Nkoma,1100,True,Parastatal,,False,2007,gravity,gravity,gravity,parastatal,parastatal,never pay,never pay,soft,good,seasonal,seasonal,rainwater harvesting,rainwater harvesting,surface,communal standpipe,communal standpipe,functional needs repair
1592,0,Government Of Tanzania,1053,District council,37.6737756,-3.22300783,Lower Road,0,Pangani,Mandateni,Kilimanjaro,3,1,Rombo,Keni  Alleni,1,True,Company,Machame Aleni water supply,True,1980,gravity,gravity,gravity,company,commercial,pay monthly,monthly,soft,good,insufficient,insufficient,spring,spring,groundwater,communal standpipe,communal standpipe,others
19912,200,Government Of Tanzania,1854,DWE,38.24431153,-4.5561185,Kwa Mzee Shenyange,0,Pangani,Mbugui,Tanga,4,1,Lushoto,Rangwi,1,True,VWC,Shagayo forest,True,1978,gravity,gravity,gravity,vwc,user-group,pay monthly,monthly,soft,good,enough,enough,spring,spring,groundwater,communal standpipe,communal standpipe,others
30102,20,China Government,203,Ch,38.30645081,-6.56444038,Zakia,0,Wami / Ruvu,Kota,Pwani,6,1,Bagamoyo,Lugoba,80,True,WUA,Chalinze wate,True,2003,ksb,submersible,submersible,wua,user-group,pay per bucket,per bucket,soft,good,enough,enough,river,river/lake,surface,communal standpipe,communal standpipe,others
2313,0,Government Of Tanzania,1322,DWE,30.30275293,-4.44338253,Kwa Kajoro,0,Lake Tanganyika,Mgombe A,Kigoma,16,2,Kasulu,Nyakitonto,750,True,Water authority,Janda,False,1982,gravity,gravity,gravity,water board,user-group,never pay,never pay,soft,good,insufficient,insufficient,river,river/lake,surface,communal standpipe,communal standpipe,others
16060,15,Isf,1039,ISF,35.3029403,-3.52256131,Malihai,0,Internal,Gidibashi,Arusha,24,30,Karatu,Mang'ola,100,True,VWC,Jumuhiya ya watumia maji,True,1998,gravity,gravity,gravity,vwc,user-group,pay per bucket,per bucket,soft,good,seasonal,seasonal,river,river/lake,surface,communal standpipe multiple,communal standpipe,others
32961,0,Rwssp,0,DWE,0,-2E-08,Nkindwabiye Shule Ya Msingi,0,Lake Victoria,Bariadi,Shinyanga,17,1,Bariadi,Nkololo,0,False,Parastatal,,False,0,afridev,afridev,handpump,parastatal,parastatal,never pay,never pay,salty,salty,enough,enough,shallow well,shallow well,groundwater,hand pump,hand pump,functional needs repair
52408,0,,0,,33.59904906,-9.22476034,Kwa Mzee Sakaveto,0,Lake Nyasa,Ighembe,Mbeya,12,4,Rungwe,Lufingo,0,True,VWC,S,,0,gravity,gravity,gravity,vwc,user-group,pay annually,annually,soft,good,enough,enough,spring,spring,groundwater,communal standpipe,communal standpipe,functional needs repair
18559,0,,1494,,34.72889358,-4.59247577,Muhuvi Primary,0,Internal,Elimu,Singida,13,2,Singida Rural,Ughandi,1,True,VWC,,,1990,afridev,afridev,handpump,vwc,user-group,unknown,unknown,unknown,unknown,dry,dry,machine dbh,borehole,groundwater,hand pump,hand pump,others
42069,0,Rwssp,0,WEDECO,34.19312157,-3.18436582,Umoja,0,Internal,Ntuzu,Shinyanga,17,6,Meatu,Mwabusalu,0,True,WUG,None,True,0,nira/tanira,nira/tanira,handpump,wug,user-group,never pay,never pay,soft,good,enough,enough,shallow well,shallow well,groundwater,hand pump,hand pump,functional needs repair
33493,0,Shipo,1666,SHIPO,34.98065303,-9.27104747,Kwa Mariamu Nyato,0,Rufiji,Ikombe,Iringa,11,4,Njombe,Kidegembye,25,True,WUA,,True,2008,other - rope pump,rope pump,rope pump,wua,user-group,pay when scheme fails,on failure,soft,good,enough,enough,hand dtw,borehole,groundwater,hand pump,hand pump,others
45036,0,Padep,1110,PADEP,34.25601138,-4.3359958,Lamboni,0,Internal,Msisi,Singida,13,1,Iramba,Shelui,568,True,VWC,,True,2008,gravity,gravity,gravity,vwc,user-group,never pay,never pay,coloured,colored,seasonal,seasonal,dam,dam,surface,communal standpipe multiple,communal standpipe,others
36519,1000,World Vision,1416,World Vision,37.91521252,-4.15288295,Kwa Nginyangwa,0,Pangani,Kwamchu,Kilimanjaro,3,3,Same,Mshewa,35,True,Water authority,Tutu,True,1995,gravity,gravity,gravity,vwc,user-group,pay annually,annually,soft,good,enough,enough,unknown,other,unknown,communal standpipe,communal standpipe,functional needs repair
5639,0,Government Of Tanzania,0,GOVER,35.88192871,-6.68434718,Bombani,0,Rufiji,Lusinde,Dodoma,1,4,Chamwino,Manzase,0,True,VWC,Sasa,True,0,mono,mono,motorpump,vwc,user-group,pay per bucket,per bucket,soft,good,insufficient,insufficient,machine dbh,borehole,groundwater,communal standpipe multiple,communal standpipe,functional needs repair
54318,300,Msf,1007,MSF,29.66914509,-4.71870683,Shule Ya Msingi Bubango,0,Lake Tanganyika,Kabasaka,Kigoma,16,3,Kigoma Rural,Mwamgongo,800,True,WUG,Mwongolele water project,True,2003,gravity,gravity,gravity,wug,user-group,pay monthly,monthly,soft,good,enough,enough,spring,spring,groundwater,communal standpipe multiple,communal standpipe,functional needs repair
70852,0,Dwsp,0,DWE,0,-2E-08,Mang'Ada,0,Lake Victoria,Mang'Ada,Shinyanga,17,1,Bariadi,Chinamili,0,True,WUG,,False,0,swn 80,swn 80,handpump,wug,user-group,other,other,soft,good,enough,enough,shallow well,shallow well,groundwater,hand pump,hand pump,functional needs repair
50148,100,0,16,0,39.19361828,-6.91579441,Kwa Laurence,0,Wami / Ruvu,Mtaa Wa Kivule,Dar es Salaam,7,2,Ilala,Kitunda,50,,Private operator,,False,2010,submersible,submersible,submersible,private operator,commercial,pay per bucket,per bucket,soft,good,enough,enough,machine dbh,borehole,groundwater,communal standpipe,communal standpipe,others
63346,0,El,0,EL,31.46403701,-1.72471079,Ya Wananchi,0,Lake Victoria,Rubale,Kagera,18,3,Muleba,Ngenge,0,True,VWC,,True,0,gravity,gravity,gravity,vwc,user-group,never pay,never pay,soft,good,enough,enough,spring,spring,groundwater,communal standpipe,communal standpipe,functional needs repair
48044,0,World Vision,0,World vision,34.01051749,-3.48204254,Mwandete Primary School,0,Internal,Ikuililo,Shinyanga,17,2,Maswa,Dakama,0,True,WUG,,False,0,gravity,gravity,gravity,wug,user-group,other,other,soft,good,seasonal,seasonal,rainwater harvesting,rainwater harvesting,surface,communal standpipe,communal standpipe,functional needs repair
73055,250,Government Of Tanzania,1110,Government,29.9643479,-4.84112073,Kwa Zuhura,0,Lake Tanganyika,Kwaga B,Kigoma,16,2,Kigoma Rural,Matendo,290,True,Water authority,Kasangezi,True,1976,gravity,gravity,gravity,water board,user-group,pay monthly,monthly,soft,good,enough,enough,river,river/lake,surface,communal standpipe multiple,communal standpipe,functional needs repair
42787,0,Tcrs,1572,TCRS,37.97557582,-4.49816205,Vunta Secondary,0,Pangani,Hemwambo,Kilimanjaro,3,3,Same,Vunta,420,True,Water authority,Vunta water supply,True,1996,gravity,gravity,gravity,vwc,user-group,never pay,never pay,soft,good,insufficient,insufficient,spring,spring,groundwater,communal standpipe,communal standpipe,functional needs repair
26254,0,Marafip,1149,DWE,33.23603193,-2.09982709,Kwa Nyakosi,0,Lake Victoria,Mwilindi,Mara,20,4,Bunda,Kisorya,180,True,WUG,,False,1998,other,other,other,wug,user-group,pay when scheme fails,on failure,salty,salty,enough,enough,shallow well,shallow well,groundwater,other,other,others
32608,10,Germany Republi,1055,CES,37.14438387,-3.26952235,Area 6 Namba 16,0,Pangani,Kengere,Kilimanjaro,3,5,Hai,Masama Kusini,150,True,Water Board,Losaa-Kia water supply,True,1999,gravity,gravity,gravity,water board,user-group,pay per bucket,per bucket,soft,good,enough,enough,spring,spring,groundwater,communal standpipe,communal standpipe,others
4521,250,Oxfam,1045,OXFAM,29.83166761,-4.64954689,Kwa Elyas,0,Lake Tanganyika,Mkoza,Kigoma,16,2,Kasulu,Munzenze,750,True,Water authority,Nyantamba,True,2000,gravity,gravity,gravity,water board,user-group,pay monthly,monthly,soft,good,enough,enough,river,river/lake,surface,communal standpipe,communal standpipe,functional needs repair
36279,5000,Plan Int,276,Plan Int,36.34123433,-8.15018411,Kwambwagai,0,Rufiji,Bomamzinga B,Morogoro,5,3,Kilombero,Idete,120,True,,,True,2004,other - rope pump,rope pump,rope pump,vwc,user-group,pay when scheme fails,on failure,salty,salty,insufficient,insufficient,shallow well,shallow well,groundwater,hand pump,hand pump,functional needs repair
68256,50,Kanisa La Menonite,1215,MTN,34.0417789,-1.16525177,Nyawile,0,Lake Victoria,Nyamateng'Enga,Mara,20,6,Rorya,Mkoma,350,True,Private operator,Mradi wa maji Shirati,False,1992,submersible,submersible,submersible,vwc,user-group,pay per bucket,per bucket,soft,good,enough,enough,lake,river/lake,surface,communal standpipe multiple,communal standpipe,others
68123,0,,0,,34.08511304,-8.78450741,Kwa Mzee Lumandame,0,Rufiji,Lugelele B,Mbeya,12,7,Mbarali,Chimala,0,True,VWC,,True,0,gravity,gravity,gravity,vwc,user-group,pay monthly,monthly,soft,good,insufficient,insufficient,river,river/lake,surface,communal standpipe,communal standpipe,functional needs repair
55946,0,Government Of Tanzania,990,DWE,37.42029815,-3.33815056,Sholo,0,Pangani,Lowasi,Kilimanjaro,3,4,Moshi Rural,Kimochi,1,False,VWC,Komaka mandaka,True,1963,gravity,gravity,gravity,vwc,user-group,unknown,unknown,soft,good,insufficient,insufficient,spring,spring,groundwater,other,other,others
52979,0,Government Of Tanzania,1399,DWE,38.50200217,-4.7798585,Kwa Mzee Ifraim,0,Pangani,Kwewati,Tanga,4,1,Lushoto,Mgwashi,1,True,VWC,Baga 2 streem,True,1975,gravity,gravity,gravity,vwc,user-group,never pay,never pay,soft,good,enough,enough,spring,spring,groundwater,communal standpipe,communal standpipe,others
38018,0,Rc Church,2118,RC CHURCH,34.54984626,-9.32288666,Kwa Samsoni,0,Lake Nyasa,Makungu,Iringa,11,4,Njombe,Igosi,45,True,VWC,MAKOGA WATER SUPPLY,False,2000,gravity,gravity,gravity,vwc,user-group,never pay,never pay,soft,good,enough,enough,spring,spring,groundwater,communal standpipe,communal standpipe,others
7037,0,Hesawa,0,DWE,33.63287487,-2.78540743,Kwajohn,0,Lake Victoria,Mwabalobi,Mwanza,19,2,Magu,Nkungulu,0,True,,,True,0,swn 80,swn 80,handpump,vwc,user-group,never pay,never pay,soft,good,insufficient,insufficient,shallow well,shallow well,groundwater,hand pump,hand pump,functional needs repair
73339,0,Water Board,1082,Government,37.09810123,-5.70504142,Kwa Muye,0,Wami / Ruvu,Mnadani,Manyara,21,5,Kiteto,Sunya,1,True,,,True,2008,nira/tanira,nira/tanira,handpump,vwc,user-group,never pay,never pay,salty,salty,enough,enough,hand dtw,borehole,groundwater,hand pump,hand pump,others
47627,0,,1211,,36.68283709,-3.49336355,Secondary,0,Pangani,Elwayn,Arusha,2,3,Arusha Urban,Terrat,530,True,VWC,G,,2000,gravity,gravity,gravity,vwc,user-group,never pay,never pay,soft,good,seasonal,seasonal,rainwater harvesting,rainwater harvesting,surface,communal standpipe,communal standpipe,functional needs repair
30826,15,Isf,1029,ISF,35.2982029,-3.5191361,Bondeni,0,Internal,Bugharga,Arusha,24,30,Karatu,Mang'ola,100,True,VWC,Jumuhiya ya watumia maji,True,1998,gravity,gravity,gravity,vwc,user-group,pay per bucket,per bucket,soft,good,seasonal,seasonal,river,river/lake,surface,communal standpipe,communal standpipe,others
11795,50,World Bank,0,Ma,36.96235629,-6.21156734,Shuleni,0,Wami / Ruvu,Sokoni,Morogoro,5,1,Kilosa,Mamboya,639,True,VWC,Ki,False,2006,ksb,submersible,submersible,vwc,user-group,pay per bucket,per bucket,salty,salty,insufficient,insufficient,machine dbh,borehole,groundwater,communal standpipe,communal standpipe,others
43514,0,Wvt,1333,WVT,34.07200346,-3.0029502,Upokeaji,0,Lake Victoria,Mwabasabi,Shinyanga,17,1,Bariadi,Nkoma,600,True,WUG,,False,2011,nira/tanira,nira/tanira,handpump,wug,user-group,never pay,never pay,soft,good,enough,enough,shallow well,shallow well,groundwater,hand pump,hand pump,functional needs repair
44469,0,Government Of Tanzania,324,DWE,36.26795541,-8.92931531,Kwa Mtapike,0,Rufiji,Majiji,Morogoro,5,4,Ulanga,Sofi,1,True,,Sofi Maj,True,1994,gravity,gravity,gravity,unknown,unknown,unknown,unknown,unknown,unknown,unknown,unknown,river,river/lake,surface,communal standpipe,communal standpipe,others
64661,25,Ces(gmbh),694,DWE,37.50763686,-3.52366236,Kwa Regina Aminieli,0,Pangani,Kati,Kilimanjaro,3,4,Moshi Rural,Kahe Mashariki,260,True,Water Board,Kirua kahe pumping water trust,True,2008,submersible,submersible,submersible,water board,user-group,pay per bucket,per bucket,soft,good,enough,enough,machine dbh,borehole,groundwater,communal standpipe,communal standpipe,others
54961,0,District Council,1001,District Council,37.64812508,-3.79036479,Kwa Mzee Josephati,0,Pangani,Mbuyuni,Kilimanjaro,3,2,Mwanga,Lembeni,40,True,Water Board,Ruwini water supply,False,1993,gravity,gravity,gravity,water board,user-group,never pay,never pay,soft,good,insufficient,insufficient,spring,spring,groundwater,communal standpipe,communal standpipe,functional needs repair
45676,0,World Bank,536,Victoria company,39.00557993,-10.18682983,Ombariche,0,Ruvuma / Southern Coast,Mpandachi,Lindi,80,53,Ruangwa,Nkowe,95,False,VWC,,True,2011,nira/tanira,nira/tanira,handpump,vwc,user-group,never pay,never pay,soft,good,enough,enough,shallow well,shallow well,groundwater,hand pump,hand pump,others
299,0,Ministry Of Water,1095,Idara ya maji,34.96044805,-5.85076371,Kwa Maurid Khalid,0,Internal,Mabondeni,Singida,13,3,Manyoni,Kilimatinde,450,True,VWC,Kilimatinde water supply,False,1974,mono,mono,motorpump,vwc,user-group,unknown,unknown,soft,good,enough,enough,machine dbh,borehole,groundwater,communal standpipe multiple,communal standpipe,others
61712,0,Mission,0,Mission,37.57397058,-5.4357621,Misheni,0,Pangani,Misheni,Tanga,4,7,Kilindi,Kwediboma,1,True,VWC,,False,2000,swn 80,swn 80,handpump,vwc,user-group,never pay,never pay,salty,salty,insufficient,insufficient,shallow well,shallow well,groundwater,hand pump,hand pump,others
11714,0,Hsw,1291,HSW,33.888901,-1.71367726,Kwa Kiremezi Gumuri,0,Lake Victoria,Nyamagembe,Mara,20,3,Musoma Rural,Buruma,250,,VWC,,True,1996,nira/tanira,nira/tanira,handpump,vwc,user-group,unknown,unknown,soft,good,enough,enough,shallow well,shallow well,groundwater,hand pump,hand pump,others
12270,0,Walokole,196,DWE,38.5680115,-5.86253872,Kwa Amir Athumani,0,Pangani,Matondoro,Tanga,4,6,Handeni,Kwamsisi,150,True,VWC,,False,1992,other,other,other,vwc,user-group,never pay,never pay,salty,salty,insufficient,insufficient,shallow well,shallow well,groundwater,hand pump,hand pump,functional needs repair
31458,0,Oxfarm,1592,OXFARM,29.82094473,-4.46667742,Nyabageni,0,Lake Tanganyika,Luhororo,Kigoma,16,2,Kasulu,Muhinda,540,True,Water authority,,False,1996,other,other,other,vwc,user-group,never pay,never pay,soft,good,enough,enough,spring,spring,groundwater,other,other,others
64707,600,Isf,972,DWE,29.73395365,-4.80449473,Sanganigwa,0,Lake Tanganyika,Mahembe Kati,Kigoma,16,3,Kigoma Rural,Mahembe,450,True,WUG,Mkongoro Two,True,2008,gravity,gravity,gravity,vwc,user-group,pay monthly,monthly,soft,good,enough,enough,river,river/lake,surface,communal standpipe multiple,communal standpipe,functional needs repair
62182,0,,0,,34.40593545,-8.59241573,Kwa Banje,0,Rufiji,Lyabogolo B,Mbeya,12,7,Mbarali,Mawindi,0,True,WUA,,True,0,gravity,gravity,gravity,wua,user-group,never pay,never pay,soft,good,seasonal,seasonal,river,river/lake,surface,communal standpipe,communal standpipe,others
62859,0,World Bank,419,Sacso,37.72266315,-7.02292372,Sekondari Tawa,0,Wami / Ruvu,Dongo,Morogoro,5,2,Morogoro Rural,Tawa,150,True,VWC,Tawa,True,2009,gravity,gravity,gravity,vwc,user-group,never pay,never pay,soft,good,enough,enough,river,river/lake,surface,communal standpipe,communal standpipe,others
11089,500,Tassaf,945,TASSAF,35.17331784,-11.12349118,Office Ya Kijiji,0,Ruvuma / Southern Coast,Mpepai Office,Ruvuma,10,3,Mbinga,Mpepai,1,True,VWC,TASSAF,True,2007,gravity,gravity,gravity,vwc,user-group,pay monthly,monthly,coloured,colored,enough,enough,spring,spring,groundwater,communal standpipe,communal standpipe,functional needs repair
46729,20,Tasaf,1030,TASAF,37.84369287,-4.1397928,Kwa Ngayo,0,Pangani,Komankwavi,Kilimanjaro,3,3,Same,Mwembe,250,True,Water authority,,True,2011,gravity,gravity,gravity,water board,user-group,pay per bucket,per bucket,soft,good,insufficient,insufficient,spring,spring,groundwater,communal standpipe,communal standpipe,functional needs repair
63004,0,Lga,373,LGA,39.12455885,-10.85371349,Mwembeni,0,Ruvuma / Southern Coast,Magomeni,Mtwara,90,33,Masasi,Lulindi,50,True,VWC,,True,2010,gravity,gravity,gravity,vwc,user-group,never pay,never pay,soft,good,enough,enough,rainwater harvesting,rainwater harvesting,surface,communal standpipe,communal standpipe,functional needs repair
20429,500,Nethalan,368,DWE,37.63905679,-6.12068203,Mkwajuni,0,Wami / Ruvu,Komstari,Morogoro,5,6,Mvomero,Diongoya,300,True,VWC,,True,1980,swn 80,swn 80,handpump,vwc,user-group,pay monthly,monthly,soft,good,insufficient,insufficient,shallow well,shallow well,groundwater,hand pump,hand pump,others
15045,0,Dhv,285,DWE,36.05398821,-8.88287694,Kwa Mtengule,0,Rufiji,Dar Es Salaam,Morogoro,5,4,Ulanga,Biro,230,True,,,True,1996,swn 80,swn 80,handpump,vwc,user-group,never pay,never pay,soft,good,insufficient,insufficient,shallow well,shallow well,groundwater,hand pump,hand pump,others
37790,0,Hesawa,1407,Hesawa,34.38237345,-1.80411952,Daniel,0,Lake Victoria,Nyakirurumo,Mara,20,2,Serengeti,Nyamatare,400,True,WUG,,,1998,other - rope pump,rope pump,rope pump,wug,user-group,never pay,never pay,soft,good,enough,enough,shallow well,shallow well,groundwater,hand pump,hand pump,functional needs repair
26345,0,,0,,33.84475216,-8.82254802,Kanisani,0,Rufiji,Ruanda,Mbeya,12,7,Mbarali,Igurusi,0,True,WUA,,True,0,gravity,gravity,gravity,wua,user-group,pay monthly,monthly,soft,good,seasonal,seasonal,river,river/lake,surface,communal standpipe,communal standpipe,functional needs repair
10795,1200,Government Of Tanzania,1081,Commu,34.1335756,-8.84267585,none,0,Rufiji,Mlangali,Iringa,11,3,Makete,Mfumbi,0,True,WUA,Kimani,True,1990,gravity,gravity,gravity,wua,user-group,pay annually,annually,soft,good,enough,enough,spring,spring,groundwater,communal standpipe,communal standpipe,others
58000,5000,Shipo,1372,DWE,34.79598789,-9.85042797,none,0,Lake Nyasa,Myombo,Iringa,11,5,Ludewa,Lugarawa,150,True,VWC,SHIPO,False,2009,gravity,gravity,gravity,vwc,user-group,pay annually,annually,soft,good,enough,enough,spring,spring,groundwater,communal standpipe,communal standpipe,others
69079,500,Snv Ltd,524,RWE,37.5644671,-6.91693492,Kwa Kapaya,0,Wami / Ruvu,Maili 10,Morogoro,5,6,Mvomero,Mzumbe,1,True,VWC,Tangeni,True,1985,gravity,gravity,gravity,vwc,user-group,pay monthly,monthly,soft,good,insufficient,insufficient,river,river/lake,surface,communal standpipe,communal standpipe,functional needs repair
2607,0,Dwsp,0,DWE,0,-2E-08,Bumali,0,Lake Victoria,Mwamsike,Shinyanga,17,1,Bariadi,Bunamhala,0,False,WUG,,False,0,nira/tanira,nira/tanira,handpump,wug,user-group,never pay,never pay,soft,good,insufficient,insufficient,shallow well,shallow well,groundwater,hand pump,hand pump,functional needs repair
16415,0,Missi,1673,Missi,35.1051646,-9.54757985,none,0,Lake Nyasa,Mapera,Iringa,11,4,Njombe,Kifanya,30,True,VWC,Matund,False,1998,gravity,gravity,gravity,vwc,user-group,never pay,never pay,soft,good,enough,enough,spring,spring,groundwater,communal standpipe,communal standpipe,others
27337,0,Hesawa,0,DWE,31.38746758,-1.10875015,Tra,0,Lake Victoria,Mtukula,Kagera,18,7,Misenyi,Nsunga,0,True,VWC,,True,0,nira/tanira,nira/tanira,handpump,vwc,user-group,pay monthly,monthly,soft,good,insufficient,insufficient,shallow well,shallow well,groundwater,hand pump,hand pump,others
23848,5000,Lga,896,DWE,31.37046392,-7.42284142,Kwa Kidilu,0,Lake Rukwa,Kilida,Rukwa,15,1,Mpanda,Mamba,170,True,VWC,Mto China,True,2011,gravity,gravity,gravity,vwc,user-group,pay annually,annually,soft,good,enough,enough,spring,spring,groundwater,communal standpipe,communal standpipe,others
15452,500,Adb,1578,DWE,34.95221038,-8.87135916,Kwa Abed Mgeni,0,Rufiji,Mahongole A,Iringa,11,4,Njombe,Mahongole,120,True,VWC,,False,2009,swn 80,swn 80,handpump,vwc,user-group,pay when scheme fails,on failure,soft,good,enough,enough,hand dtw,borehole,groundwater,hand pump,hand pump,others
31496,200,Cipro/government,632,CIPRO/Government,37.91768774,-4.51336453,Kwa Remnek,0,Pangani,Kongei,Kilimanjaro,3,3,Same,Hedaru,140,True,Water authority,Kongei water supply,True,2005,gravity,gravity,gravity,vwc,user-group,pay monthly,monthly,soft,good,insufficient,insufficient,spring,spring,groundwater,communal standpipe multiple,communal standpipe,functional needs repair
64668,0,,0,,34.01161166,-8.85287276,Kanisani Kkkt,0,Rufiji,Tankini,Mbeya,12,7,Mbarali,Chimala,0,True,VWC,,True,0,gravity,gravity,gravity,vwc,user-group,never pay,never pay,soft,good,seasonal,seasonal,river,river/lake,surface,communal standpipe,communal standpipe,functional needs repair
69369,250,Red Cross,1382,RED CROSS,30.19084639,-4.25437661,Katundu Primary,0,Lake Tanganyika,Nyamalebe,Kigoma,16,2,Kasulu,Buhoro,740,True,Water authority,Nyamugarika,True,2002,gravity,gravity,gravity,water board,user-group,pay monthly,monthly,soft,good,enough,enough,river,river/lake,surface,communal standpipe,communal standpipe,functional needs repair
36145,200,Dhv,875,DWE,36.71361387,-8.73665634,Kwa Chagoa,0,Rufiji,Koloa,Morogoro,5,4,Ulanga,Isongo,190,True,WUA,Isongo w,True,1995,gravity,gravity,gravity,wug,user-group,pay monthly,monthly,soft,good,enough,enough,spring,spring,groundwater,communal standpipe,communal standpipe,others
67749,0,Ded,0,DWE,36.09529809,-4.73315186,Tangini,0,Internal,Tangini,Dodoma,1,1,Kondoa,Busi,0,True,VWC,Samb,False,0,gravity,gravity,gravity,vwc,user-group,never pay,never pay,soft,good,enough,enough,spring,spring,groundwater,communal standpipe multiple,communal standpipe,functional needs repair
47438,0,,0,,33.8291817,-9.29635733,Njisi,0,Lake Nyasa,Njisi,Mbeya,12,4,Rungwe,Lupata,0,True,VWC,K,,0,gravity,gravity,gravity,vwc,user-group,unknown,unknown,soft,good,enough,enough,spring,spring,groundwater,communal standpipe,communal standpipe,others
50933,3000,No,1655,DWE,31.18646313,-7.4699994,Zahanati,0,Lake Rukwa,Kapagulwa,Rukwa,15,3,Nkasi,Mtenga,250,True,VWC,,False,1984,india mark ii,india mark ii,handpump,vwc,user-group,pay annually,annually,salty,salty,enough,enough,machine dbh,borehole,groundwater,hand pump,hand pump,others
62380,0,Dfid,1381,WATER AID,34.60985522,-4.94315449,Mfufya A,0,Internal,Mtisi,Singida,13,4,Singida Urban,Mtamaa,86,True,WUG,,True,2003,afridev,afridev,handpump,wug,user-group,never pay,never pay,salty abandoned,salty,enough,enough,machine dbh,borehole,groundwater,hand pump,hand pump,others
20164,1000,District Council,977,District Council,37.63437953,-3.793803,Mbuyuni,0,Pangani,Mbuyuni,Kilimanjaro,3,2,Mwanga,Lembeni,250,True,VWC,Kiverenge water supply,False,0,gravity,gravity,gravity,vwc,user-group,pay monthly,monthly,soft,good,insufficient,insufficient,spring,spring,groundwater,communal standpipe,communal standpipe,functional needs repair
56402,2000,Lga,270,LGA,39.05240495,-10.47974558,Shuleni,0,Ruvuma / Southern Coast,Mitumbati,Mtwara,90,33,Masasi,Mwena,1,True,VWC,,True,1995,gravity,gravity,gravity,vwc,user-group,pay annually,annually,soft,good,insufficient,insufficient,spring,spring,groundwater,communal standpipe,communal standpipe,functional needs repair
70234,0,Concern World Wide,0,DWE,31.4415705,-2.78788878,Kayombelezi,0,Lake Tanganyika,Kagongo,Kagera,18,4,Biharamulo,Runazi,0,True,VWC,,True,0,nira/tanira,nira/tanira,handpump,vwc,user-group,pay monthly,monthly,soft,good,enough,enough,shallow well,shallow well,groundwater,hand pump,hand pump,others
45111,20,Lga,240,LGA,39.08741514,-11.00060373,Mikoroshini,0,Ruvuma / Southern Coast,Kachulu,Mtwara,90,33,Masasi,Sindano,30,True,VWC,,True,2004,gravity,gravity,gravity,vwc,user-group,pay per bucket,per bucket,soft,good,enough,enough,spring,spring,groundwater,communal standpipe,communal standpipe,functional needs repair
56705,0,,0,,33.65927345,-9.32292272,Kwa Mwalilmu Pimbi,0,Lake Nyasa,Ushirika,Mbeya,12,4,Rungwe,Mpuguso,0,True,VWC,K,,0,gravity,gravity,gravity,vwc,user-group,never pay,never pay,soft,good,insufficient,insufficient,spring,spring,groundwater,communal standpipe,communal standpipe,others
19203,0,World Vision,0,World vision,32.01232426,-3.31338766,Butengu C,0,Lake Tanganyika,Butengu,Shinyanga,17,5,Bukombe,Ilolangulu,0,True,WUG,,True,0,nira/tanira,nira/tanira,handpump,wug,user-group,unknown,unknown,milky,milky,enough,enough,shallow well,shallow well,groundwater,hand pump,hand pump,functional needs repair
3883,0,Unicef,0,DWE,33.66183274,-2.70938822,Kwabugoyi,0,Lake Victoria,Misungwi,Mwanza,19,2,Magu,Nkungulu,0,True,,,True,0,nira/tanira,nira/tanira,handpump,vwc,user-group,never pay,never pay,soft,good,insufficient,insufficient,shallow well,shallow well,groundwater,hand pump,hand pump,functional needs repair
17788,0,,0,,34.21783227,-8.71624873,Kwa Mzee Mwasada,0,Rufiji,Mapogoro,Mbeya,12,7,Mbarali,Mapogoro,0,True,VWC,,True,0,gravity,gravity,gravity,vwc,user-group,pay monthly,monthly,soft,good,seasonal,seasonal,river,river/lake,surface,communal standpipe,communal standpipe,functional needs repair
50735,0,,0,,34.36627852,-8.70624526,Shule Ya Msingi,0,Rufiji,Mahango,Mbeya,12,7,Mbarali,Rujewa,0,False,Water Board,,True,0,gravity,gravity,gravity,water board,user-group,never pay,never pay,soft,good,seasonal,seasonal,river,river/lake,surface,communal standpipe,communal standpipe,others
12585,0,Dwsp,0,DWE,0,-2E-08,Tegemeo,0,Lake Victoria,Kazina,Shinyanga,17,1,Bariadi,Lugulu,0,,WUG,,False,0,swn 80,swn 80,handpump,wug,user-group,unknown,unknown,soft,good,dry,dry,shallow well,shallow well,groundwater,hand pump,hand pump,others
20373,0,District Council,0,District council,33.126088,-4.85865882,Shuleni,0,Lake Tanganyika,Idete,Tabora,14,3,Uyui,Isikizya,0,True,VWC,,True,0,gravity,gravity,gravity,vwc,user-group,never pay,never pay,soft,good,seasonal,seasonal,rainwater harvesting,rainwater harvesting,surface,communal standpipe,communal standpipe,functional needs repair
30292,50,,1069,,36.0964057,-3.5515261,Msikitini,0,Internal,Makuyuni,Arusha,2,1,Monduli,Makuyuni,1,True,WUA,M,,2000,submersible,submersible,submersible,wua,user-group,pay per bucket,per bucket,soft,good,insufficient,insufficient,machine dbh,borehole,groundwater,communal standpipe,communal standpipe,functional needs repair
10055,0,Ded,0,DED,30.68023514,-2.55991483,Nyanchobongo,0,Lake Victoria,Rubona,Kagera,18,30,Ngara,Kibimba,0,True,VWC,,False,0,gravity,gravity,gravity,vwc,user-group,never pay,never pay,soft,good,seasonal,seasonal,spring,spring,groundwater,other,other,others
73407,0,Rc,1401,RC,35.05583201,-10.86808173,Kanisa,0,Lake Nyasa,Utiri Mjini,Ruvuma,10,3,Mbinga,Utiri,60,,VWC,DANIDA,True,2012,gravity,gravity,gravity,vwc,user-group,unknown,unknown,soft,good,enough,enough,spring,spring,groundwater,communal standpipe,communal standpipe,others
74072,0,,0,,31.82937816,-1.28359257,Nganyira,0,Lake Victoria,Makongo,Kagera,18,6,Bukoba Urban,Kahororo,0,True,VWC,,False,0,gravity,gravity,gravity,vwc,user-group,never pay,never pay,unknown,unknown,dry,dry,spring,spring,groundwater,improved spring,improved spring,functional needs repair
61102,0,Kibaha Town Council,87,DAWASCO,38.84796706,-6.73301314,Bint Shabani,0,Wami / Ruvu,Karabaka,Pwani,6,2,Kibaha,Visiga,1,True,VWC,Water from DAWASCO,True,2008,gravity,gravity,gravity,vwc,user-group,never pay,never pay,soft,good,enough,enough,spring,spring,groundwater,communal standpipe,communal standpipe,others
25792,0,Community,280,Communit,36.92947732,-7.73946229,Kwakigonja,0,Rufiji,Misufini,Morogoro,5,3,Kilombero,Sanje,50,True,VWC,Msolwa U,True,2002,gravity,gravity,gravity,vwc,user-group,never pay,never pay,soft,good,insufficient,insufficient,river,river/lake,surface,communal standpipe,communal standpipe,functional needs repair
5342,0,Government Of Tanzania,0,Central Government,31.4545682,-2.64347173,Shule Ya Msingi Kasenga,0,Lake Victoria,Kasusura B,Kagera,18,8,Chato,Kachwamba,0,True,VWC,Kabondo,True,0,gravity,gravity,gravity,vwc,user-group,never pay,never pay,soft,good,enough,enough,spring,spring,groundwater,communal standpipe multiple,communal standpipe,others
30653,500,Adb,1672,DWE,34.92982535,-9.01074596,Kwa Msaliti Chongolo,0,Rufiji,Ibiki Kati,Iringa,11,4,Njombe,Igongolo,40,True,VWC,Ibiki gravity water scheme,False,2008,gravity,gravity,gravity,vwc,user-group,pay monthly,monthly,soft,good,enough,enough,spring,spring,groundwater,communal standpipe,communal standpipe,others
63914,250,Oxfam,1194,OXFAM,29.91422998,-4.55022098,Kwa Bahingai,0,Lake Tanganyika,Mwanga A,Kigoma,16,2,Kasulu,Janda,230,True,Water authority,Mwangwe,True,1999,gravity,gravity,gravity,water board,user-group,pay monthly,monthly,soft,good,enough,enough,river,river/lake,surface,communal standpipe,communal standpipe,functional needs repair
52639,0,Rural Water Supply And Sanitat,0,DWE,31.81598423,-3.2573599,Kivumo,0,Lake Tanganyika,Kivumo,Shinyanga,17,5,Bukombe,Ushirombo,0,True,WUG,,True,0,nira/tanira,nira/tanira,handpump,wug,user-group,unknown,unknown,soft,good,enough,enough,shallow well,shallow well,groundwater,hand pump,hand pump,functional needs repair
35768,0,Water,0,Gover,36.49351908,-7.13830798,Ipera,0,Rufiji,Ipera,Dodoma,1,1,Mpwapwa,Ipera,0,True,VWC,Kinu,True,0,gravity,gravity,gravity,vwc,user-group,never pay,never pay,soft,good,enough,enough,spring,spring,groundwater,communal standpipe,communal standpipe,functional needs repair
54715,500,Government Of Tanzania,2101,DWE,36.65336806,-3.22381814,Kandaskilieti,0,Pangani,Kandaskilieti,Arusha,2,2,Arusha Rural,Olkokola,150,True,VWC,Olkokola pipe line,True,1990,gravity,gravity,gravity,vwc,user-group,pay when scheme fails,on failure,soft,good,insufficient,insufficient,spring,spring,groundwater,communal standpipe,communal standpipe,others
41253,0,Hsw,1453,HSW,34.01991962,-1.72615256,Kisakwe,0,Lake Victoria,Keng'Eta,Mara,20,3,Musoma Rural,Muriaza,250,,VWC,,False,1990,nira/tanira,nira/tanira,handpump,vwc,user-group,unknown,unknown,soft,good,enough,enough,shallow well,shallow well,groundwater,hand pump,hand pump,others
21232,0,World Vision,499,World Vision,38.07498442,-4.46774017,Zahanati,0,Pangani,Zahanati,Kilimanjaro,3,3,Same,Kihurio,120,True,Water authority,,,2011,gravity,gravity,gravity,vwc,user-group,never pay,never pay,soft,good,insufficient,insufficient,rainwater harvesting,rainwater harvesting,surface,communal standpipe,communal standpipe,functional needs repair
17683,0,Rwssp,0,WEDECO,34.35403406,-3.03668481,Mwamanota A,0,Lake Victoria,Mwabasabi,Shinyanga,17,6,Meatu,Lingeka,0,True,WUG,None,True,0,nira/tanira,nira/tanira,handpump,wug,user-group,never pay,never pay,soft,good,enough,enough,shallow well,shallow well,groundwater,hand pump,hand pump,others
47520,500,Tcrs,1161,TCRS,34.22433307,-4.54538865,Lunsanga,0,Internal,Lunsanga,Singida,13,1,Iramba,Mtekente,243,True,VWC,,True,1997,afridev,afridev,handpump,vwc,user-group,pay when scheme fails,on failure,soft,good,enough,enough,machine dbh,borehole,groundwater,hand pump,hand pump,others
72078,0,Aic,0,AIC,0,-2E-08,Zahanati,0,Lake Tanganyika,Shiyanza,Mwanza,19,6,Geita,Bukoli,0,True,VWC,,True,0,other,other,other,vwc,user-group,never pay,never pay,soft,good,insufficient,insufficient,rainwater harvesting,rainwater harvesting,surface,hand pump,hand pump,functional needs repair
24065,500,Lga,252,LGA,39.00862538,-10.89584483,Bombani,0,Ruvuma / Southern Coast,Likanga,Mtwara,90,33,Masasi,Chiugutwa,50,True,VWC,,False,1996,gravity,gravity,gravity,vwc,user-group,pay monthly,monthly,soft,good,enough,enough,spring,spring,groundwater,communal standpipe,communal standpipe,functional needs repair
65064,500,Co,1393,Ki,36.86212146,-6.2608739,Kwa Hassan,0,Wami / Ruvu,Mjini,Morogoro,5,1,Kilosa,Rubeho,370,True,VWC,Ru,True,2007,gravity,gravity,gravity,vwc,user-group,pay monthly,monthly,soft,good,enough,enough,spring,spring,groundwater,communal standpipe,communal standpipe,functional needs repair
73201,0,Hesawa,1351,Hesawa,34.41075644,-1.76870771,Yunia,0,Lake Victoria,Kemugesi,Mara,20,2,Serengeti,Nyamatare,300,True,WUG,,,1996,nira/tanira,nira/tanira,handpump,wug,user-group,never pay,never pay,unknown,unknown,insufficient,insufficient,shallow well,shallow well,groundwater,hand pump,hand pump,others
26071,0,Hesawa,1191,DWE,32.9404873,-2.07286397,Kwaanselm,0,Lake Victoria,Lyabasura,Mwanza,19,1,Ukerewe,Bwiro,350,True,,,True,2001,gravity,gravity,gravity,vwc,user-group,never pay,never pay,soft,good,insufficient,insufficient,spring,spring,groundwater,communal standpipe,communal standpipe,functional needs repair
20215,100,Lga,444,LGA,38.60842463,-10.58787909,Koki Namba Tano,0,Ruvuma / Southern Coast,Matatizo B,Mtwara,90,33,Masasi,Lukulendi,309,True,VWC,,True,2007,mono,mono,motorpump,vwc,user-group,pay per bucket,per bucket,salty,salty,seasonal,seasonal,machine dbh,borehole,groundwater,communal standpipe multiple,communal standpipe,functional needs repair
67329,0,Lamp,1432,DWE,35.65568819,-4.24928924,Kwa Mchungaji,0,Internal,Kintanguyaro,Manyara,21,1,Babati,Riroda,168,True,VWC,,True,1993,gravity,gravity,gravity,vwc,user-group,never pay,never pay,soft,good,insufficient,insufficient,spring,spring,groundwater,communal standpipe,communal standpipe,functional needs repair
61200,0,Drdp Ngo,0,DWE,30.83736754,-1.46121634,Tank La Zahanat,0,Lake Victoria,Bweyendezi,Kagera,18,1,Karagwe,Nkwenda,0,True,,,True,0,gravity,gravity,gravity,other,other,never pay,never pay,soft,good,seasonal,seasonal,rainwater harvesting,rainwater harvesting,surface,communal standpipe,communal standpipe,others
13007,0,Water,0,Water,36.65279021,-6.71517047,Kati,0,Wami / Ruvu,Kati,Dodoma,1,1,Mpwapwa,Lumuma,0,True,VWC,,True,0,nira/tanira,nira/tanira,handpump,vwc,user-group,pay monthly,monthly,soft,good,enough,enough,shallow well,shallow well,groundwater,hand pump,hand pump,functional needs repair
25327,0,Danida,973,DWE,35.50499466,-10.82524696,Kwa Serina,0,Ruvuma / Southern Coast,Umbalo A,Ruvuma,10,2,Songea Rural,Mpitimbi,0,True,VWC,Mradi wa maji wa mpitimbi,True,1978,gravity,gravity,gravity,vwc,user-group,pay when scheme fails,on failure,soft,good,enough,enough,river,river/lake,surface,communal standpipe,communal standpipe,functional needs repair
18504,0,Water,0,Commu,35.57284256,-6.30304236,Kwa Mzee Ijinji,0,Internal,Mwegamile,Dodoma,1,5,Dodoma Urban,Mbabala,0,True,VWC,,False,0,other,other,other,vwc,user-group,never pay,never pay,soft,good,dry,dry,shallow well,shallow well,groundwater,other,other,others
30534,500,Kkkt,1480,Villagers,35.04966674,-8.83160641,Kwa Mtokoma,0,Rufiji,Mwongozo,Iringa,11,4,Njombe,Mahongole,40,True,VWC,,False,2010,nira/tanira,nira/tanira,handpump,vwc,user-group,pay monthly,monthly,soft,good,enough,enough,hand dtw,borehole,groundwater,hand pump,hand pump,others
29111,200,Cipro/government,631,CIPRO/Government,37.9157589,-4.51236811,Kwa Emanuel,0,Pangani,Kongei,Kilimanjaro,3,3,Same,Hedaru,100,True,Water authority,Kongei water supply,True,2005,gravity,gravity,gravity,vwc,user-group,pay monthly,monthly,soft,good,insufficient,insufficient,spring,spring,groundwater,communal standpipe,communal standpipe,functional needs repair
50131,0,Ncaa,1173,NCAA,35.88173433,-2.14713584,Lesika,0,Internal,Jema,Arusha,2,5,Ngorongoro,Oldonyo Sambu,254,True,VWC,Jema water scheme,True,2007,gravity,gravity,gravity,vwc,user-group,never pay,never pay,soft,good,insufficient,insufficient,spring,spring,groundwater,communal standpipe,communal standpipe,functional needs repair
55519,0,Ded,1686,DWE,34.68926806,-9.90683692,none,0,Lake Nyasa,Ludende A,Iringa,11,5,Ludewa,Ludende,520,True,VWC,DED,False,2006,gravity,gravity,gravity,vwc,user-group,pay when scheme fails,on failure,soft,good,enough,enough,river,river/lake,surface,communal standpipe,communal standpipe,others
43742,1000,Tasaf,375,TASAF,37.32334128,-11.44864298,Napulu B,0,Ruvuma / Southern Coast,Napulu,Ruvuma,10,1,Tunduru,Mchesi,1,True,VWC,,False,2007,swn 80,swn 80,handpump,vwc,user-group,pay monthly,monthly,soft,good,enough,enough,machine dbh,borehole,groundwater,hand pump,hand pump,others
71427,0,Jbg,0,JBG,30.51042645,-2.6120818,Mabalatwanka,0,Lake Victoria,Mbagwana,Kagera,18,30,Ngara,Mabawe,0,True,VWC,,False,0,gravity,gravity,gravity,vwc,user-group,never pay,never pay,soft,good,enough,enough,spring,spring,groundwater,other,other,others
53249,500,Dhv,283,DWE,36.05586705,-8.90097004,Kwa Ngakongwa,0,Rufiji,Ilonga,Morogoro,5,4,Ulanga,Biro,350,True,,,True,1992,swn 80,swn 80,handpump,vwc,user-group,other,other,soft,good,insufficient,insufficient,shallow well,shallow well,groundwater,hand pump,hand pump,others
72055,0,Government Of Tanzania,1136,DWE,38.32007958,-4.8503711,Msikitini,0,Pangani,Shugului,Tanga,4,1,Lushoto,Ubiri,1,True,VWC,Ilente streem,True,1982,gravity,gravity,gravity,vwc,user-group,never pay,never pay,soft,good,enough,enough,spring,spring,groundwater,communal standpipe,communal standpipe,functional needs repair
63575,0,Tasaf,698,DWE,36.03097592,-10.83080145,Zahanati,0,Ruvuma / Southern Coast,Msikitini,Ruvuma,10,5,Namtumbo,Mkongo,100,True,Parastatal,,False,2012,gravity,gravity,gravity,parastatal,parastatal,never pay,never pay,soft,good,seasonal,seasonal,rainwater harvesting,rainwater harvesting,surface,communal standpipe,communal standpipe,others
18496,0,Government Of Tanzania,0,Government,0,-2E-08,Bombani,0,Lake Victoria,Ujamaa B,Mwanza,19,6,Geita,Kalangalala,0,True,VWC,Kalangalala,True,0,gravity,gravity,gravity,vwc,user-group,pay per bucket,per bucket,soft,good,insufficient,insufficient,spring,spring,groundwater,communal standpipe,communal standpipe,functional needs repair
50073,0,Oxfarm,1571,OXFARM,29.81194455,-4.45377253,Mreka,0,Lake Tanganyika,Luhororo,Kigoma,16,2,Kasulu,Muhinda,2400,True,Water authority,,False,2006,other,other,other,vwc,user-group,never pay,never pay,soft,good,enough,enough,spring,spring,groundwater,communal standpipe,communal standpipe,others
11724,0,Rwssp,0,DWE,32.48781687,-3.95294169,Mlezi,0,Lake Tanganyika,Kigwa B,Shinyanga,17,3,Kahama,Ukune,0,True,,,True,0,other,other,other,wug,user-group,unknown,unknown,milky,milky,dry,dry,shallow well,shallow well,groundwater,other,other,others
4776,250,Oxfarm,1167,OXFARM,30.2206711,-4.62600854,Kwa Skuye,0,Lake Tanganyika,Nyamigombelo B,Kigoma,16,2,Kasulu,Murufiti,650,True,Water authority,Murufiti,True,1998,gravity,gravity,gravity,water board,user-group,pay monthly,monthly,soft,good,enough,enough,river,river/lake,surface,communal standpipe multiple,communal standpipe,functional needs repair
73683,0,,0,,33.84427658,-9.23308818,Kyusi,0,Lake Nyasa,Lupaso,Mbeya,12,4,Rungwe,Lwangwa,0,True,VWC,D,,0,gravity,gravity,gravity,vwc,user-group,unknown,unknown,soft,good,enough,enough,spring,spring,groundwater,communal standpipe,communal standpipe,others
35771,500,Norad,1018,RWE,29.69494846,-4.74234508,Kwa Mzee Muyela,0,Lake Tanganyika,Bitale Sokoni,Kigoma,16,3,Kigoma Rural,Kagongo,86,True,VWC,Mkongoro One,True,1985,gravity,gravity,gravity,vwc,user-group,pay monthly,monthly,soft,good,seasonal,seasonal,river,river/lake,surface,communal standpipe multiple,communal standpipe,others
56079,0,,0,,34.3142014,-8.68299139,Kwa Kilufi,0,Rufiji,Santa Maria A,Mbeya,12,7,Mbarali,Ubaruku,0,True,VWC,,True,0,gravity,gravity,gravity,vwc,user-group,never pay,never pay,soft,good,seasonal,seasonal,river,river/lake,surface,communal standpipe,communal standpipe,functional needs repair
19509,0,Hesawa,0,DWE,33.48357091,-2.52041735,Shuleni Nsola P/S,0,Lake Victoria,Mali,Mwanza,19,2,Magu,Lubugo,0,True,Parastatal,,True,0,gravity,gravity,gravity,parastatal,parastatal,never pay,never pay,soft,good,dry,dry,rainwater harvesting,rainwater harvesting,surface,communal standpipe,communal standpipe,others
21742,0,Dwsp,0,DWE,0,-2E-08,Mtakuja,0,Lake Victoria,Mlimani,Shinyanga,17,1,Bariadi,Sapiwi,0,True,WUG,,False,0,nira/tanira,nira/tanira,handpump,wug,user-group,never pay,never pay,soft,good,insufficient,insufficient,shallow well,shallow well,groundwater,hand pump,hand pump,functional needs repair
54096,1000,Unicef,591,UNICEF,37.31299578,-11.11666891,Kwa Issa Mgoha,0,Ruvuma / Southern Coast,Mwasomwa B,Ruvuma,10,1,Tunduru,Milingoti Magharibi,1,True,VWC,,False,1999,swn 80,swn 80,handpump,vwc,user-group,pay when scheme fails,on failure,soft,good,insufficient,insufficient,machine dbh,borehole,groundwater,hand pump,hand pump,functional needs repair
34947,0,World Bank,1635,DWE,35.58894512,-4.23910234,Zahanati,0,Internal,Tsaayo A,Manyara,21,1,Babati,Arri,1,,,,True,2013,gravity,gravity,gravity,unknown,unknown,unknown,unknown,unknown,unknown,unknown,unknown,river,river/lake,surface,communal standpipe multiple,communal standpipe,others
65160,0,Lvia,0,Commu,36.81528677,-6.30415673,Kanisani,0,Wami / Ruvu,,Dodoma,1,3,Kongwa,Mlali,0,True,VWC,Nghu,False,0,gravity,gravity,gravity,vwc,user-group,pay annually,annually,soft,good,dry,dry,spring,spring,groundwater,communal standpipe,communal standpipe,others
71356,5,Ces (gmbh),1306,DWE,37.28019866,-3.23732443,Kwa Joseph Mwalimu,0,Pangani,Chamini,Kilimanjaro,3,4,Moshi Rural,Kibosho Magharibi,50,True,Water Board,Lyamungo umbwe water supply,True,2007,gravity,gravity,gravity,water board,user-group,pay per bucket,per bucket,soft,good,enough,enough,river,river/lake,surface,communal standpipe,communal standpipe,others
56881,0,,0,,33.60515407,-9.22654881,Kanisani,0,Lake Nyasa,Katumba,Mbeya,12,4,Rungwe,Lufingo,0,True,VWC,S,,0,gravity,gravity,gravity,vwc,user-group,pay annually,annually,soft,good,enough,enough,spring,spring,groundwater,communal standpipe,communal standpipe,functional needs repair
3881,0,Unicef,877,DWE,35.79927682,-10.71864732,Kwa Ansigale,0,Ruvuma / Southern Coast,Gulioni,Ruvuma,10,2,Songea Rural,Matimira,0,True,VWC,Mradi wa maji wa matimila,True,1983,gravity,gravity,gravity,vwc,user-group,never pay,never pay,soft,good,dry,dry,river,river/lake,surface,communal standpipe,communal standpipe,others
43633,0,World Vision,0,World vision,33.50746928,-3.14760017,Bukigi Primary School,0,Lake Victoria,Bukigi,Shinyanga,17,2,Maswa,Malampaka,0,True,WUG,,False,0,gravity,gravity,gravity,wug,user-group,other,other,soft,good,seasonal,seasonal,rainwater harvesting,rainwater harvesting,surface,communal standpipe,communal standpipe,functional needs repair
56925,0,Government Of Tanzania,1251,Government,34.86307016,-10.73151377,Kwa Mzee Jaruo,61,Lake Nyasa,Kiyaha Pachani,Ruvuma,10,3,Mbinga,Matiri,60,,VWC,Government,True,2005,gravity,gravity,gravity,vwc,user-group,unknown,unknown,soft,good,enough,enough,spring,spring,groundwater,communal standpipe,communal standpipe,functional needs repair
3756,0,Government Of Tanzania,0,Government,32.81935362,-7.74506904,Erasto Kalangaza,0,Lake Rukwa,Majengo,Mbeya,12,1,Chunya,Ngwala,0,True,VWC,,True,0,gravity,gravity,gravity,vwc,user-group,never pay,never pay,soft,good,enough,enough,spring,spring,groundwater,communal standpipe,communal standpipe,functional needs repair
8792,600,Isf,810,DWE,29.74282881,-4.89116011,Kwa Mzee Juma,0,Lake Tanganyika,Matiazo B,Kigoma,16,3,Kigoma Rural,Simbo,256,True,WUG,Mkongoro Two,True,2009,gravity,gravity,gravity,vwc,user-group,pay monthly,monthly,soft,good,enough,enough,river,river/lake,surface,communal standpipe multiple,communal standpipe,functional needs repair
36141,0,,0,,33.57871781,-9.22970634,Kwa Mzee Mwalufingo,0,Lake Nyasa,Njelenje,Mbeya,12,4,Rungwe,Lufingo,0,True,VWC,S,,0,gravity,gravity,gravity,vwc,user-group,never pay,never pay,soft,good,insufficient,insufficient,spring,spring,groundwater,communal standpipe,communal standpipe,functional needs repair
48641,0,Government Of Tanzania,-26,DWE,39.21596452,-8.28552521,Kwamitumba1,0,Rufiji,Nyato,Lindi,80,13,Kilwa,Kinjumbi,325,True,,,True,1985,other,other,other,vwc,user-group,never pay,never pay,salty,salty,enough,enough,shallow well,shallow well,groundwater,other,other,others
767,0,Tanapa,1854,Tanapa,34.75470492,-1.41334301,Kemarwagaini,0,Lake Victoria,Kegonga,Mara,20,1,Tarime,Serengeti National Park,1500,True,,,True,1995,nira/tanira,nira/tanira,handpump,vwc,user-group,unknown,unknown,soft,good,enough,enough,shallow well,shallow well,groundwater,hand pump,hand pump,others
55889,500,Danida,449,DANIDA,34.61988415,-10.53986506,Kwa Mzee Sebastian,0,Lake Nyasa,Kihulu Cha Kwanza,Ruvuma,10,3,Mbinga,Lituhi,90,True,VWC,DANIDA,True,2001,gravity,gravity,gravity,vwc,user-group,pay monthly,monthly,soft,good,enough,enough,spring,spring,groundwater,communal standpipe,communal standpipe,others
69837,0,Government Of Tanzania,0,Government,33.18322583,-8.65635042,Mwamsimba,0,Lake Rukwa,Ilea,Mbeya,12,1,Chunya,Kanga,0,True,VWC,,True,0,gravity,gravity,gravity,vwc,user-group,pay monthly,monthly,soft,good,enough,enough,spring,spring,groundwater,communal standpipe,communal standpipe,functional needs repair
43248,0,District Council,693,District Council,37.54367852,-3.50464472,Shule Ya Msingi Kituri,0,Pangani,Kalimani,Kilimanjaro,3,2,Mwanga,Kileo,594,True,Private operator,,False,1990,india mark ii,india mark ii,handpump,private operator,commercial,never pay,never pay,soft,good,insufficient,insufficient,shallow well,shallow well,groundwater,hand pump,hand pump,others
61302,6,Ces(gmbh),1520,DWE,37.45673771,-3.3115214,Kwa James Hillary,0,Pangani,Lyambongo,Kilimanjaro,3,4,Moshi Rural,Kirua Vunjo Magharibi,50,True,Water Board,Kirua kahe gravity water supply trust,True,2008,gravity,gravity,gravity,water board,user-group,pay per bucket,per bucket,soft,good,enough,enough,spring,spring,groundwater,communal standpipe,communal standpipe,others
34146,0,Dmdd,1871,Dmdd,35.39614138,-4.49730056,Jolodomu Kati,0,Internal,Jolodomu Kati,Manyara,21,2,Hanang,Mogitu,563,True,VWC,Jodowaso,True,2002,gravity,gravity,gravity,vwc,user-group,never pay,never pay,soft,good,insufficient,insufficient,spring,spring,groundwater,communal standpipe,communal standpipe,others
40525,600,Isf,804,DWE,29.73841582,-4.90282033,Msikitini,0,Lake Tanganyika,Bondo,Kigoma,16,3,Kigoma Rural,Simbo,185,True,WUG,Mkongoro Two,True,2009,gravity,gravity,gravity,vwc,user-group,pay monthly,monthly,soft,good,enough,enough,river,river/lake,surface,communal standpipe multiple,communal standpipe,functional needs repair
66355,0,,1239,,35.02491166,-5.04452372,Msikutini,0,Internal,Igunga,Singida,13,2,Singida Rural,Misughaa,1,True,VWC,M,,1970,mono,mono,motorpump,vwc,user-group,unknown,unknown,unknown,unknown,dry,dry,machine dbh,borehole,groundwater,other,other,others
50704,0,,1040,,36.05651461,-3.52664256,Manyara Ranch Primary School 4,0,Internal,Zaburi,Arusha,2,1,Monduli,Makuyuni,1,False,Parastatal,M,,2000,submersible,submersible,submersible,parastatal,parastatal,never pay,never pay,soft,good,enough,enough,machine dbh,borehole,groundwater,communal standpipe,communal standpipe,functional needs repair
53721,0,,0,,33.60154894,-9.34679818,Kwa Mwansasu,0,Lake Nyasa,Mpuga,Mbeya,12,4,Rungwe,Kisondela,0,True,VWC,K,,0,gravity,gravity,gravity,vwc,user-group,never pay,never pay,soft,good,insufficient,insufficient,river,river/lake,surface,communal standpipe,communal standpipe,functional needs repair
44549,0,Oxfam,0,CONCERN,30.66627681,-2.44133634,Kanisani,0,Lake Victoria,Kinyinya,Kagera,18,30,Ngara,Ngara Urban,0,True,VWC,,False,0,gravity,gravity,gravity,vwc,user-group,never pay,never pay,soft,good,insufficient,insufficient,spring,spring,groundwater,communal standpipe,communal standpipe,others
65127,0,Rwssp,0,RWSSP,33.2936225,-3.4269168,Shule,0,Lake Victoria,Bunambiyu Centre,Shinyanga,17,8,Kishapu,Bunambiu,0,True,Parastatal,,False,0,gravity,gravity,gravity,unknown,unknown,unknown,unknown,soft,good,seasonal,seasonal,rainwater harvesting,rainwater harvesting,surface,other,other,functional needs repair
42742,0,Rudep,1475,DWE,32.06959822,-8.69170797,Kwa Nadula,0,Lake Rukwa,Nampako,Rukwa,15,2,Sumbawanga Rural,Miangalua,150,True,VWC,,False,1986,india mark ii,india mark ii,handpump,vwc,user-group,never pay,never pay,soft,good,enough,enough,machine dbh,borehole,groundwater,hand pump,hand pump,functional needs repair
15806,0,Rwssp,0,DWE,32.39386603,-3.94978028,Imalabuhabi,0,Lake Tanganyika,Buhabi,Shinyanga,17,3,Kahama,Mpunze,0,,,,False,0,nira/tanira,nira/tanira,handpump,unknown,unknown,unknown,unknown,unknown,unknown,unknown,unknown,shallow well,shallow well,groundwater,hand pump,hand pump,others
43920,0,Danida,1488,TCRS,30.86457574,-3.12197949,Kwa Thadeo,0,Lake Tanganyika,Nabibombo,Kigoma,16,1,Kibondo,Muhange,700,,VWC,,False,2004,gravity,gravity,gravity,vwc,user-group,unknown,unknown,soft,good,enough,enough,spring,spring,groundwater,improved spring,improved spring,others
24444,0,Dhv,889,DWE,36.72423373,-8.66398618,Kwa Chimwaga,0,Rufiji,Makanga Juu,Morogoro,5,4,Ulanga,Vigoi,1,True,Water Board,Makanga,True,1985,gravity,gravity,gravity,vwc,user-group,never pay,never pay,soft,good,dry,dry,river,river/lake,surface,communal standpipe,communal standpipe,others
23747,0,Dwsp,0,DWE,0,-2E-08,Mishagibazenganwa,0,Lake Victoria,Kaskazini,Shinyanga,17,1,Bariadi,Sapiwi,0,True,WUG,,False,0,nira/tanira,nira/tanira,handpump,wug,user-group,never pay,never pay,soft,good,enough,enough,shallow well,shallow well,groundwater,hand pump,hand pump,functional needs repair
50114,0,Lotary Club,1193,DWE,33.08669296,-2.07675412,School,0,Lake Victoria,Mwitongo,Mwanza,19,1,Ukerewe,Bukongo,956,True,Water Board,Nansio Water Supply,True,2011,other,other,other,other,other,never pay,never pay,soft,good,insufficient,insufficient,lake,river/lake,surface,communal standpipe,communal standpipe,functional needs repair
11415,0,Dwsp,1305,DWE,34.0202712,-3.05045786,Mkalitus,0,Lake Victoria,Nkoma Mjini,Shinyanga,17,1,Bariadi,Nkoma,200,False,WUG,,False,1998,nira/tanira,nira/tanira,handpump,wug,user-group,never pay,never pay,soft,good,enough,enough,shallow well,shallow well,groundwater,hand pump,hand pump,functional needs repair
59043,0,World Vision,0,DWE,30.95548178,-1.50182874,Tank La Shule,0,Lake Victoria,Muleba,Kagera,18,1,Karagwe,Rwabere,0,True,,,True,0,gravity,gravity,gravity,other,other,never pay,never pay,soft,good,seasonal,seasonal,rainwater harvesting,rainwater harvesting,surface,communal standpipe,communal standpipe,functional needs repair
16760,0,Hesawa,1625,HESAWA,34.65030201,-1.85678743,Serengeti Secondary School,0,Lake Victoria,Shuleni,Mara,20,2,Serengeti,Kyambahi,560,,Other,,True,1995,gravity,gravity,gravity,other,other,unknown,unknown,soft,good,seasonal,seasonal,rainwater harvesting,rainwater harvesting,surface,communal standpipe,communal standpipe,others
31768,50,Government Of Tanzania,99,DWE,38.9910209,-9.25509037,Kwakaranje,0,Ruvuma / Southern Coast,Kijijini,Lindi,80,13,Kilwa,Likawage,860,True,,,True,1985,nira/tanira,nira/tanira,handpump,wug,user-group,pay per bucket,per bucket,soft,good,enough,enough,shallow well,shallow well,groundwater,hand pump,hand pump,others
22149,30,Wateraid,1547,SEMA,34.74704299,-4.30829563,Mligya,0,Internal,Kanisa,Singida,13,1,Iramba,Nduguti,214,True,WUG,Mwando water supply,True,2006,mono,mono,motorpump,wug,user-group,pay per bucket,per bucket,soft,good,enough,enough,machine dbh,borehole,groundwater,hand pump,hand pump,others
53182,0,Government Of Tanzania,1064,DWE,36.81606385,-3.44296275,Kwa Knatmika,0,Pangani,Majengo,Arusha,2,2,Arusha Rural,Mlangarini,150,True,VWC,Machumba estate pipe line,True,1988,gravity,gravity,gravity,vwc,user-group,never pay,never pay,soft,good,enough,enough,spring,spring,groundwater,other,other,others
1474,50,Private Individual,-27,Da,38.90018105,-6.43835938,Ustadh Said,0,Wami / Ruvu,Mianzini B,Pwani,6,1,Bagamoyo,Magomeni,60,False,Company,Bagamoyo wate,True,2009,ksb,submersible,submersible,private operator,commercial,pay per bucket,per bucket,soft,good,enough,enough,river,river/lake,surface,communal standpipe,communal standpipe,others
26579,250,Norad,1264,NORAD,30.06941272,-4.67009667,Kwa Fedia,0,Lake Tanganyika,Mushori,Kigoma,16,2,Kasulu,Muzye,450,True,Water authority,Mushori,True,1984,gravity,gravity,gravity,water board,user-group,pay monthly,monthly,soft,good,enough,enough,river,river/lake,surface,communal standpipe,communal standpipe,others
67180,5,Germany Republi,1377,CES,37.24671105,-3.22036748,Kwa Mama Simba Swai,0,Pangani,Namba Tatu,Kilimanjaro,3,5,Hai,Machame Mashariki,25,True,Water Board,Lyamungo-Umbwe water supply,True,2006,gravity,gravity,gravity,water board,user-group,pay per bucket,per bucket,soft,good,enough,enough,spring,spring,groundwater,communal standpipe,communal standpipe,others
14596,100,Government Of Tanzania,2257,Commu,34.07142006,-9.23970606,none,0,Lake Nyasa,Mbete,Iringa,11,3,Makete,Iwawa,0,True,VWC,Luvulu,False,2006,gravity,gravity,gravity,vwc,user-group,pay monthly,monthly,soft,good,enough,enough,spring,spring,groundwater,communal standpipe,communal standpipe,others
39668,0,,0,,33.60223261,-9.35053747,Kwa Njumbo,0,Lake Nyasa,Mpuga,Mbeya,12,4,Rungwe,Kisondela,0,True,VWC,K,,0,gravity,gravity,gravity,vwc,user-group,never pay,never pay,soft,good,insufficient,insufficient,river,river/lake,surface,communal standpipe,communal standpipe,functional needs repair
17624,0,,0,,34.31024393,-8.66443907,Kwa Pelela,0,Rufiji,Stendi,Mbeya,12,7,Mbarali,Ubaruku,0,True,VWC,,False,0,submersible,submersible,submersible,vwc,user-group,never pay,never pay,soft,good,enough,enough,machine dbh,borehole,groundwater,communal standpipe,communal standpipe,others
18715,0,Hesawa,0,DWE,31.83882535,-1.23244768,Kaanga,0,Lake Victoria,Ikande,Kagera,18,2,Bukoba Rural,Nyakato,0,True,VWC,,True,0,gravity,gravity,gravity,vwc,user-group,never pay,never pay,soft,good,enough,enough,spring,spring,groundwater,improved spring,improved spring,functional needs repair
5672,30,Isf,1027,ISF,35.3209063,-3.50196368,Kwa Gichiro,0,Internal,Mswakini,Arusha,24,30,Karatu,Mang'ola,800,True,VWC,Jumuhiya ya watumia maji,True,2012,gravity,gravity,gravity,vwc,user-group,pay per bucket,per bucket,soft,good,enough,enough,river,river/lake,surface,communal standpipe,communal standpipe,others
47650,25,Government Of Tanzania,856,Government,37.70423874,-4.07423952,Mighareni,0,Pangani,Kiwanja,Kilimanjaro,3,3,Same,Same Urban,420,True,Water authority,SAUWASA water supply,True,1983,submersible,submersible,submersible,water authority,commercial,pay per bucket,per bucket,salty,salty,insufficient,insufficient,machine dbh,borehole,groundwater,communal standpipe multiple,communal standpipe,functional needs repair
16211,6000,Fini Water,-16,Fini Water,40.07869639,-10.31760464,Kwa Makonde,0,Ruvuma / Southern Coast,Rwelu,Mtwara,9,5,Mtwara Urban,Jangwani,530,True,,,False,0,nira/tanira,nira/tanira,handpump,vwc,user-group,pay monthly,monthly,salty,salty,insufficient,insufficient,shallow well,shallow well,groundwater,hand pump,hand pump,functional needs repair
4359,0,World Vision,0,Consulting Engineer,32.71857326,-4.1174539,Kikundi Cha Upendo Kwa Robert,0,Lake Tanganyika,Mwamakumbai A,Tabora,14,1,Nzega,Kahamanhalaga,0,False,VWC,,False,0,other,other,other,vwc,user-group,never pay,never pay,soft,good,enough,enough,shallow well,shallow well,groundwater,other,other,functional needs repair
27527,0,Kaemp,0,DWE,31.6252998,-1.2300393,Nyakashanga,0,Lake Victoria,Bikonge,Kagera,18,7,Misenyi,Buyango,0,True,VWC,,True,0,other,other,other,vwc,user-group,pay when scheme fails,on failure,soft,good,insufficient,insufficient,spring,spring,groundwater,improved spring,improved spring,functional needs repair
64054,0,Dwsp,0,DWE,0,-2E-08,Zogoma,0,Lake Victoria,Mahina A,Shinyanga,17,1,Bariadi,Somanda,0,True,WUG,,False,0,swn 80,swn 80,handpump,wug,user-group,pay monthly,monthly,soft,good,enough,enough,shallow well,shallow well,groundwater,hand pump,hand pump,functional needs repair
51185,0,Sema,1542,SEMA,34.84539417,-4.26244399,Kwa Kizali,0,Internal,Shule,Singida,13,1,Iramba,Mwanga,230,True,VWC,,True,1998,afridev,afridev,handpump,vwc,user-group,never pay,never pay,soft,good,enough,enough,shallow well,shallow well,groundwater,hand pump,hand pump,others
73131,0,San Pellegrino,44,AMREF,39.09080512,-7.38871179,Shuleni,0,Rufiji,Luvungwi,Pwani,6,4,Mkuranga,Nyamato,300,True,VWC,,False,2007,india mark ii,india mark ii,handpump,vwc,user-group,never pay,never pay,salty,salty,enough,enough,machine dbh,borehole,groundwater,hand pump,hand pump,others
53042,0,,0,,34.03223734,-8.8541242,Kwa Mzee Mwaliawa,0,Rufiji,Mtoni,Mbeya,12,7,Mbarali,Chimala,0,True,VWC,,True,0,gravity,gravity,gravity,vwc,user-group,pay monthly,monthly,soft,good,insufficient,insufficient,river,river/lake,surface,communal standpipe,communal standpipe,others
28462,0,Government Of Tanzania,1682,DWE,38.21159561,-4.5552835,Kwa Mzee Abedishui,0,Pangani,Mamboleo,Tanga,4,1,Lushoto,Sunga,1,True,VWC,,True,1985,other,other,other,vwc,user-group,never pay,never pay,soft,good,enough,enough,shallow well,shallow well,groundwater,other,other,others
51551,0,Wvt,0,WVT,0,-2E-08,Samalia,0,Lake Victoria,Ikindilo,Shinyanga,17,1,Bariadi,Chinamili,0,False,WUG,,False,0,swn 80,swn 80,handpump,wug,user-group,never pay,never pay,soft,good,dry,dry,shallow well,shallow well,groundwater,hand pump,hand pump,functional needs repair
70684,0,Hesawa,0,DWE,31.73778757,-1.42719558,Kwa Raulian Mabugo,0,Lake Victoria,Bwanga,Kagera,18,2,Bukoba Rural,Bujugo,0,True,VWC,WAUSA,True,0,gravity,gravity,gravity,vwc,user-group,never pay,never pay,soft,good,enough,enough,spring,spring,groundwater,communal standpipe,communal standpipe,functional needs repair
15264,0,Fw,283,FW,39.01887269,-10.84027039,Maongezi,0,Ruvuma / Southern Coast,Galani,Mtwara,90,33,Masasi,Nanjota,1,True,VWC,,True,1980,other,other,other,vwc,user-group,unknown,unknown,soft,good,dry,dry,shallow well,shallow well,groundwater,other,other,others
54974,20,Government Of Tanzania,380,RWE,37.44697348,-6.30017464,Kikando,0,Wami / Ruvu,Kikando,Morogoro,5,6,Mvomero,Mvomero,1,False,VWC,Vugiro,True,1974,gravity,gravity,gravity,vwc,user-group,pay per bucket,per bucket,soft,good,insufficient,insufficient,river,river/lake,surface,communal standpipe,communal standpipe,functional needs repair
22250,0,World Vision,0,World Vision,33.10736854,-3.53819012,Mwapu,0,Lake Victoria,Mwapu,Shinyanga,17,3,Shinyanga Rural,Iselamagazi,0,True,VWC,,True,0,swn 80,swn 80,handpump,vwc,user-group,never pay,never pay,salty,salty,enough,enough,machine dbh,borehole,groundwater,hand pump,hand pump,functional needs repair
45221,0,Danida,1938,DWE,35.36408782,-8.4093841,none,0,Rufiji,M,Iringa,11,2,Mufindi,Luhunga,0,True,VWC,,False,0,swn 80,swn 80,handpump,vwc,user-group,never pay,never pay,soft,good,enough,enough,shallow well,shallow well,groundwater,hand pump,hand pump,others
16769,0,Dwsp,0,DWE,0,-2E-08,Mukombozi,0,Lake Victoria,Mwakimisha,Shinyanga,17,1,Bariadi,Nkoma,0,True,WUG,,False,0,nira/tanira,nira/tanira,handpump,wug,user-group,never pay,never pay,soft,good,insufficient,insufficient,shallow well,shallow well,groundwater,hand pump,hand pump,functional needs repair
3516,0,Private,1361,Private,34.97406662,-10.97439546,Kwa Mzee Izack,0,Ruvuma / Southern Coast,Tope,Ruvuma,10,3,Mbinga,Kilimani,60,,WUG,Government,True,2011,gravity,gravity,gravity,wug,user-group,unknown,unknown,soft,good,enough,enough,spring,spring,groundwater,communal standpipe,communal standpipe,functional needs repair
70355,30,Government Of Tanzania,142,District Council,39.29501889,-10.31868051,Kwa Michael Milanzi,0,Ruvuma / Southern Coast,Mchangani,Lindi,80,23,Lindi Rural,Nyangao,80,False,WUA,Nyangao Water Supply,False,2010,gravity,gravity,gravity,wua,user-group,pay per bucket,per bucket,soft,good,enough,enough,river,river/lake,surface,communal standpipe multiple,communal standpipe,others
63032,0,Tanapa,0,TANAPA,0,-2E-08,Jamii,0,Lake Victoria,Nselya,Shinyanga,17,1,Bariadi,Sagata,0,False,Parastatal,,False,0,nira/tanira,nira/tanira,handpump,parastatal,parastatal,never pay,never pay,soft,good,insufficient,insufficient,shallow well,shallow well,groundwater,hand pump,hand pump,functional needs repair
16267,250,Government Of Tanzania,1244,DWE,30.05086821,-4.72448486,Mutala Shuleni,0,Lake Tanganyika,Majengo,Kigoma,16,2,Kasulu,Muzye,790,True,Water authority,Kisuma,True,1999,gravity,gravity,gravity,water board,user-group,pay monthly,monthly,soft,good,insufficient,insufficient,river,river/lake,surface,communal standpipe multiple,communal standpipe,functional needs repair
65236,0,,0,,33.63803273,-8.75811254,Kwa Mzee Mwalaje,0,Rufiji,Majoja,Mbeya,12,7,Mbarali,Ruiwa,0,True,VWC,,True,0,gravity,gravity,gravity,vwc,user-group,pay annually,annually,soft,good,seasonal,seasonal,river,river/lake,surface,communal standpipe,communal standpipe,others
9780,0,,0,,34.78957332,-8.21729593,Kwa Njiwa,0,Rufiji,Majengo A,Mbeya,12,7,Mbarali,Madibira,0,True,WUA,,True,0,gravity,gravity,gravity,wua,user-group,never pay,never pay,soft,good,seasonal,seasonal,river,river/lake,surface,communal standpipe,communal standpipe,functional needs repair
17498,0,Dwsp,0,DWE,0,-2E-08,Serengeti,0,Lake Victoria,Mwanonelagi,Shinyanga,17,1,Bariadi,Sapiwi,0,False,WUG,,False,0,nira/tanira,nira/tanira,handpump,wug,user-group,never pay,never pay,soft,good,enough,enough,shallow well,shallow well,groundwater,hand pump,hand pump,functional needs repair
2347,600,Isf,944,DWE,29.72348776,-4.81966002,Muhunguzi,0,Lake Tanganyika,Kaloleni,Kigoma,16,3,Kigoma Rural,Mahembe,566,True,WUG,Mkongoro Two,True,2008,gravity,gravity,gravity,vwc,user-group,pay monthly,monthly,soft,good,enough,enough,river,river/lake,surface,communal standpipe multiple,communal standpipe,functional needs repair
15621,0,Tasaf,0,TASAF,0,-2E-08,Ujirani Mwema,0,Lake Victoria,Nyaniga,Shinyanga,17,1,Bariadi,Nyakabindi,0,True,WUG,,False,0,nira/tanira,nira/tanira,handpump,wug,user-group,never pay,never pay,salty abandoned,salty,insufficient,insufficient,shallow well,shallow well,groundwater,hand pump,hand pump,functional needs repair
45891,0,Kkkt,0,KKKT,33.16287766,-8.95925992,Charles Mwala,0,Lake Rukwa,Shikula,Mbeya,12,6,Mbozi,Ruanda,0,True,VWC,,False,0,nira/tanira,nira/tanira,handpump,vwc,user-group,pay when scheme fails,on failure,soft,good,enough,enough,shallow well,shallow well,groundwater,hand pump,hand pump,functional needs repair
66395,0,Government Of Tanzania,367,DWE,38.92529463,-8.47864497,Pump House,0,Rufiji,Kipatimu Boma,Lindi,80,13,Kilwa,Kipatimu,239,True,,,True,1985,nira/tanira,nira/tanira,handpump,vwc,user-group,never pay,never pay,salty,salty,enough,enough,shallow well,shallow well,groundwater,hand pump,hand pump,functional needs repair
41092,0,Dwssp,0,DWE,0,-2E-08,Mlango Mmoja,0,Lake Victoria,Mwabuma B,Shinyanga,17,1,Bariadi,Nkololo,0,True,WUG,,False,0,nira/tanira,nira/tanira,handpump,wug,user-group,never pay,never pay,soft,good,enough,enough,shallow well,shallow well,groundwater,hand pump,hand pump,functional needs repair
70424,0,Md,0,DW,31.54923004,-1.78404463,Kwa Aloys,0,Lake Victoria,Rutenge B,Kagera,18,3,Muleba,Nshamba,0,True,VWC,N,True,0,ksb,submersible,submersible,vwc,user-group,never pay,never pay,soft,good,enough,enough,spring,spring,groundwater,communal standpipe,communal standpipe,others
8087,0,Rwssp,0,DWE,0,-2E-08,Matabi,0,Lake Victoria,Ilaba,Shinyanga,17,1,Bariadi,Chinamili,0,True,WUG,,False,0,nira/tanira,nira/tanira,handpump,wug,user-group,other,other,soft,good,enough,enough,shallow well,shallow well,groundwater,hand pump,hand pump,functional needs repair
48347,0,Shule,1289,SHULE,33.88411043,-2.00836395,Shuleni,0,Lake Victoria,Majengo,Mara,20,4,Bunda,Bunda,712,False,Parastatal,,False,1990,other,other,other,parastatal,parastatal,unknown,unknown,salty,salty,insufficient,insufficient,shallow well,shallow well,groundwater,other,other,functional needs repair
68762,300,Ikela Wa,264,Ikela Wa,36.95380876,-7.69826914,Tupendane,0,Rufiji,Kidatu B,Morogoro,5,3,Kilombero,Kidatu,170,True,Company,Ikela Wa,True,2010,gravity,gravity,gravity,vwc,user-group,pay monthly,monthly,soft,good,seasonal,seasonal,river,river/lake,surface,communal standpipe,communal standpipe,functional needs repair
